{"data":{"stations":[{"region_id":"3","lat":37.78637526861584,"electric_bike_surcharge_waiver":false,"station_id":"3","eightd_has_key_dispenser":false,"has_kiosk":true,"rental_methods":["CREDITCARD","KEY"],"rental_url":"http://app.fordgobike.com/Z6gL/SiFlGfIOTF?station_id=3","short_name":"SF-G27","capacity":35,"external_id":"1b13a386-c5f4-42cc-bc3b-ded95982e090","lon":-122.40490436553954,"name":"Powell St BART Station (Market St at 4th St)"},{"region_id":"3","lat":37.78588062694133,"electric_bike_surcharge_waiver":false,"station_id":"4","eightd_has_key_dispenser":false,"has_kiosk":true,"rental_methods":["CREDITCARD","KEY"],"rental_url":"http://app.fordgobike.com/Z6gL/SiFlGfIOTF?station_id=4","short_name":"SF-G26","capacity":35,"external_id":"a00d04e6-0159-466a-b3ab-23f9550f418c","lon":-122.4089150084319,"name":"Cyril Magnin St at Ellis St"},{"region_id":"3","lat":37.783899357084934,"electric_bike_surcharge_waiver":false,"station_id":"5","eightd_has_key_dispenser":false,"has_kiosk":true,"rental_methods":["CREDITCARD","KEY"],"rental_url":"http://app.fordgobike.com/Z6gL/SiFlGfIOTF?station_id=5","short_name":"SF-H26","capacity":35,"external_id":"a1e0b4b2-2c5c-4201-a78c-9e8a2152ab4e","lon":-122.40844488143921,"name":"Powell St BART Station (Market St at 5th St)"},{"region_id":"3","lat":37.80477,"electric_bike_surcharge_waiver":false,"station_id":"6","eightd_has_key_dispenser":false,"has_kiosk":true,"rental_methods":["CREDITCARD","KEY"],"rental_url":"http://app.fordgobike.com/Z6gL/SiFlGfIOTF?station_id=6","short_name":"SF-A27","capacity":23,"external_id":"23a2bad4-3ea1-4545-87eb-acbee3efccfc","lon":-122.403234,"name":"The Embarcadero at Sansome St"},{"region_id":"12","lat":37.8045623549303,"electric_bike_surcharge_waiver":false,"station_id":"7","eightd_has_key_dispenser":false,"has_kiosk":true,"rental_methods":["CREDITCARD","KEY"],"rental_url":"http://app.fordgobike.com/Z6gL/SiFlGfIOTF?station_id=7","short_name":"OK-L5","capacity":35,"external_id":"9e3efff1-3d42-46fd-8206-4021277ba6c2","lon":-122.27173805236816,"name":"Frank H Ogawa Plaza"},{"region_id":"3","lat":37.799953,"electric_bike_surcharge_waiver":false,"station_id":"8","eightd_has_key_dispenser":false,"has_kiosk":true,"rental_methods":["CREDITCARD","KEY"],"rental_url":"http://app.fordgobike.com/Z6gL/SiFlGfIOTF?station_id=8","short_name":"SF-C28-1","capacity":23,"external_id":"7c7ac914-40e5-426d-b9c4-f12b1a556be8","lon":-122.398525,"name":"The Embarcadero at Vallejo St"},{"region_id":"3","lat":37.79857210846256,"electric_bike_surcharge_waiver":false,"station_id":"9","eightd_has_key_dispenser":false,"has_kiosk":true,"rental_methods":["CREDITCARD","KEY"],"rental_url":"http://app.fordgobike.com/Z6gL/SiFlGfIOTF?station_id=9","short_name":"SF-C28-2","capacity":19,"external_id":"75f6691a-df0a-4d7a-8b35-e5ffe33add4f","lon":-122.40086898207666,"name":"Broadway at Battery St"},{"region_id":"3","lat":37.79539293725452,"electric_bike_surcharge_waiver":false,"station_id":"10","eightd_has_key_dispenser":false,"has_kiosk":true,"rental_methods":["CREDITCARD","KEY"],"rental_url":"http://app.fordgobike.com/Z6gL/SiFlGfIOTF?station_id=10","short_name":"SF-D27","capacity":31,"external_id":"e5b0aca4-2ce6-49f8-82e8-8eed6e004147","lon":-122.4047702550888,"name":"Washington St at Kearny St"},{"region_id":"3","lat":37.79728,"electric_bike_surcharge_waiver":false,"station_id":"11","eightd_has_key_dispenser":false,"has_kiosk":true,"rental_methods":["CREDITCARD","KEY"],"rental_url":"http://app.fordgobike.com/Z6gL/SiFlGfIOTF?station_id=11","short_name":"SF-D28","capacity":35,"external_id":"faad71bc-21e3-4ce1-8b84-63f782a91d1b","lon":-122.398436,"name":"Davis St at Jackson St"},{"region_id":"3","lat":37.794231,"electric_bike_surcharge_waiver":false,"station_id":"13","eightd_has_key_dispenser":false,"has_kiosk":true,"rental_methods":["CREDITCARD","KEY"],"rental_url":"http://app.fordgobike.com/Z6gL/SiFlGfIOTF?station_id=13","short_name":"SF-E27","capacity":23,"external_id":"e82e7160-d8fb-452b-8f27-c0f75926d080","lon":-122.402923,"name":"Commercial St at Montgomery St"},{"region_id":"3","lat":37.795001,"electric_bike_surcharge_waiver":false,"station_id":"14","eightd_has_key_dispenser":false,"has_kiosk":true,"rental_methods":["CREDITCARD","KEY"],"rental_url":"http://app.fordgobike.com/Z6gL/SiFlGfIOTF?station_id=14","short_name":"SF-E28","capacity":31,"external_id":"ed1bf0f9-aa06-4f57-8cd6-5775ff3c29f0","lon":-122.39997,"name":"Clay St at Battery St"},{"region_id":"3","lat":37.795392,"electric_bike_surcharge_waiver":false,"station_id":"15","eightd_has_key_dispenser":false,"has_kiosk":true,"rental_methods":["CREDITCARD","KEY"],"rental_url":"http://app.fordgobike.com/Z6gL/SiFlGfIOTF?station_id=15","short_name":"SF-E29-1","capacity":38,"external_id":"b2e9118f-aafb-49fb-b237-4ba08e21f51f","lon":-122.394203,"name":"San Francisco Ferry Building (Harry Bridges Plaza)"},{"region_id":"3","lat":37.79413,"electric_bike_surcharge_waiver":false,"station_id":"16","eightd_has_key_dispenser":false,"has_kiosk":true,"rental_methods":["CREDITCARD","KEY"],"rental_url":"http://app.fordgobike.com/Z6gL/SiFlGfIOTF?station_id=16","short_name":"SF-E29-2","capacity":23,"external_id":"84b1ea89-19b6-4f78-92e2-2a161f75e67e","lon":-122.39443,"name":"Steuart St at Market St"},{"region_id":"3","lat":37.792251,"electric_bike_surcharge_waiver":false,"station_id":"17","eightd_has_key_dispenser":false,"has_kiosk":true,"rental_methods":["CREDITCARD","KEY"],"rental_url":"http://app.fordgobike.com/Z6gL/SiFlGfIOTF?station_id=17","short_name":"SF-E29-3","capacity":27,"external_id":"16fea24d-ec2c-4e37-8f63-fc9f793de2cf","lon":-122.397086,"name":"Embarcadero BART Station (Beale St at Market St)"},{"region_id":"12","lat":37.85022187449679,"electric_bike_surcharge_waiver":false,"station_id":"18","eightd_has_key_dispenser":false,"has_kiosk":true,"rental_methods":["CREDITCARD","KEY"],"rental_url":"http://app.fordgobike.com/Z6gL/SiFlGfIOTF?station_id=18","short_name":"OK-A2","capacity":11,"external_id":"790da352-5aaa-4bb9-8453-e8ec2f78c038","lon":-122.26017236709595,"name":"Telegraph Ave at Alcatraz Ave"},{"region_id":"3","lat":37.788975,"electric_bike_surcharge_waiver":false,"station_id":"19","eightd_has_key_dispenser":false,"has_kiosk":true,"rental_methods":["CREDITCARD","KEY"],"rental_url":"http://app.fordgobike.com/Z6gL/SiFlGfIOTF?station_id=19","short_name":"SF-F27","capacity":35,"external_id":"3213dcdb-2ba7-46ad-b358-258a34bde9e0","lon":-122.403452,"name":"Post St at Kearny St"},{"region_id":"3","lat":37.7913,"electric_bike_surcharge_waiver":false,"station_id":"20","eightd_has_key_dispenser":false,"has_kiosk":true,"rental_methods":["CREDITCARD","KEY"],"rental_url":"http://app.fordgobike.com/Z6gL/SiFlGfIOTF?station_id=20","short_name":"SF-F28-1","capacity":23,"external_id":"cf56994c-cdd6-4586-9f56-eea2f51e81ae","lon":-122.399051,"name":"Mechanics Monument Plaza (Market St at Bush St)"},{"region_id":"3","lat":37.7896254,"electric_bike_surcharge_waiver":false,"station_id":"21","eightd_has_key_dispenser":false,"has_kiosk":true,"rental_methods":["CREDITCARD","KEY"],"rental_url":"http://app.fordgobike.com/Z6gL/SiFlGfIOTF?station_id=21","short_name":"SF-F28-2","capacity":39,"external_id":"2b935f1b-2659-4d82-a348-6a3bb083914d","lon":-122.400811,"name":"Montgomery St BART Station (Market St at 2nd St)"},{"region_id":"3","lat":37.789756,"electric_bike_surcharge_waiver":false,"station_id":"22","eightd_has_key_dispenser":false,"has_kiosk":true,"rental_methods":["CREDITCARD","KEY"],"rental_url":"http://app.fordgobike.com/Z6gL/SiFlGfIOTF?station_id=22","short_name":"SF-F29","capacity":27,"external_id":"083eaf2a-4d3f-4d83-986a-98f67f7f22b4","lon":-122.394643,"name":"Howard St at Beale St"},{"region_id":"3","lat":37.791464,"electric_bike_surcharge_waiver":false,"station_id":"23","eightd_has_key_dispenser":false,"has_kiosk":true,"rental_methods":["CREDITCARD","KEY"],"rental_url":"http://app.fordgobike.com/Z6gL/SiFlGfIOTF?station_id=23","short_name":"SF-F30-1","capacity":23,"external_id":"6327ad76-fdd0-4ea8-a09a-f1bccca719b3","lon":-122.391034,"name":"The Embarcadero at Steuart St"},{"region_id":"3","lat":37.7896767,"electric_bike_surcharge_waiver":false,"station_id":"24","eightd_has_key_dispenser":false,"has_kiosk":true,"rental_methods":["CREDITCARD","KEY"],"rental_url":"http://app.fordgobike.com/Z6gL/SiFlGfIOTF?station_id=24","short_name":"SF-F30-2","capacity":19,"external_id":"380aa51b-4c0a-4388-ad78-37edf7338a3e","lon":-122.3904285,"name":"Spear St at Folsom St"},{"region_id":"3","lat":37.78692825678771,"electric_bike_surcharge_waiver":false,"station_id":"25","eightd_has_key_dispenser":false,"has_kiosk":true,"rental_methods":["CREDITCARD","KEY"],"rental_url":"http://app.fordgobike.com/Z6gL/SiFlGfIOTF?station_id=25","short_name":"SF-G28-1","capacity":19,"external_id":"d79ae08e-a8d2-4aad-9f98-9b20afb8f6e0","lon":-122.39811301231384,"name":"Howard St at 2nd St"},{"region_id":"3","lat":37.78729,"electric_bike_surcharge_waiver":false,"station_id":"26","eightd_has_key_dispenser":false,"has_kiosk":true,"rental_methods":["CREDITCARD","KEY"],"rental_url":"http://app.fordgobike.com/Z6gL/SiFlGfIOTF?station_id=26","short_name":"SF-G29-2","capacity":23,"external_id":"a40fc1eb-e8e9-4d41-8f77-71365f0d9064","lon":-122.39438,"name":"1st St at Folsom St"},{"region_id":"3","lat":37.7880593,"electric_bike_surcharge_waiver":false,"station_id":"27","eightd_has_key_dispenser":false,"has_kiosk":true,"rental_methods":["CREDITCARD","KEY"],"rental_url":"http://app.fordgobike.com/Z6gL/SiFlGfIOTF?station_id=27","short_name":"SF-G30-1","capacity":23,"external_id":"4a0d887c-7e9d-4f15-a28b-aeeff05f81b6","lon":-122.3918648,"name":"Beale St at Harrison St"},{"region_id":"3","lat":37.78716801474664,"electric_bike_surcharge_waiver":false,"station_id":"28","eightd_has_key_dispenser":false,"has_kiosk":true,"rental_methods":["CREDITCARD","KEY"],"rental_url":"http://app.fordgobike.com/Z6gL/SiFlGfIOTF?station_id=28","short_name":"SF-G30-2","capacity":19,"external_id":"9fae2998-e458-47f8-9c7c-978e01f05330","lon":-122.38809792330358,"name":"The Embarcadero at Bryant St"},{"region_id":"3","lat":37.782404601934104,"electric_bike_surcharge_waiver":false,"station_id":"29","eightd_has_key_dispenser":false,"has_kiosk":true,"rental_methods":["CREDITCARD","KEY"],"rental_url":"http://app.fordgobike.com/Z6gL/SiFlGfIOTF?station_id=29","short_name":"SF-H18","capacity":27,"external_id":"3144f47a-86f7-40f6-9ff0-5c8120babf6a","lon":-122.43944585323335,"name":"O'Farrell St at Divisadero St"},{"region_id":"3","lat":37.776598,"electric_bike_surcharge_waiver":false,"station_id":"30","eightd_has_key_dispenser":false,"has_kiosk":true,"rental_methods":["CREDITCARD","KEY"],"rental_url":"http://app.fordgobike.com/Z6gL/SiFlGfIOTF?station_id=30","short_name":"SF-J29","capacity":19,"external_id":"ea11aa7f-c070-46a4-a074-70604340efa2","lon":-122.395282,"name":"San Francisco Caltrain (Townsend St at 4th St)"},{"region_id":"3","lat":37.78381270927812,"electric_bike_surcharge_waiver":false,"station_id":"31","eightd_has_key_dispenser":false,"has_kiosk":true,"rental_methods":["CREDITCARD","KEY"],"rental_url":"http://app.fordgobike.com/Z6gL/SiFlGfIOTF?station_id=31","short_name":"SF-H19","capacity":27,"external_id":"08302771-1d45-4ec8-be85-7359fc89edd4","lon":-122.43455886840819,"name":"Raymond Kimbell Playground"},{"region_id":"3","lat":37.7816495,"electric_bike_surcharge_waiver":false,"station_id":"33","eightd_has_key_dispenser":false,"has_kiosk":true,"rental_methods":["CREDITCARD","KEY"],"rental_url":"http://app.fordgobike.com/Z6gL/SiFlGfIOTF?station_id=33","short_name":"SF-H24","capacity":23,"external_id":"fcd1d64c-949b-459f-a335-1e0c3ed231d4","lon":-122.4154077,"name":"Golden Gate Ave at Hyde St"},{"region_id":"3","lat":37.7839879,"electric_bike_surcharge_waiver":false,"station_id":"34","eightd_has_key_dispenser":false,"has_kiosk":true,"rental_methods":["CREDITCARD","KEY"],"rental_url":"http://app.fordgobike.com/Z6gL/SiFlGfIOTF?station_id=34","short_name":"SF-H25","capacity":23,"external_id":"b48ebe9a-8d7b-4ac1-b0da-db5978404330","lon":-122.412408,"name":"Father Alfred E Boeddeker Park"},{"region_id":"5","lat":37.32911866814779,"electric_bike_surcharge_waiver":false,"station_id":"35","eightd_has_key_dispenser":false,"has_kiosk":true,"rental_methods":["CREDITCARD","KEY"],"rental_url":"http://app.fordgobike.com/Z6gL/SiFlGfIOTF?station_id=35","short_name":"SJ-M6","capacity":23,"external_id":"28988488-fb74-4bbc-9e69-613698b2dd8c","lon":-121.90457582473755,"name":"Cahill Park"},{"region_id":"3","lat":37.78383,"electric_bike_surcharge_waiver":false,"station_id":"36","eightd_has_key_dispenser":false,"has_kiosk":true,"rental_methods":["CREDITCARD","KEY"],"rental_url":"http://app.fordgobike.com/Z6gL/SiFlGfIOTF?station_id=36","short_name":"SF-H28","capacity":31,"external_id":"a81b1594-ce38-4374-b256-3f183c8e12bc","lon":-122.39887,"name":"Folsom St at 3rd St"},{"region_id":"3","lat":37.785376593819436,"electric_bike_surcharge_waiver":false,"station_id":"37","eightd_has_key_dispenser":false,"has_kiosk":true,"rental_methods":["CREDITCARD","KEY"],"rental_url":"http://app.fordgobike.com/Z6gL/SiFlGfIOTF?station_id=37","short_name":"SF-H29","capacity":43,"external_id":"dcb5ad16-caa9-4d40-b279-6d36152069a2","lon":-122.39690601825714,"name":"2nd St at Folsom St"},{"region_id":"3","lat":37.7789994,"electric_bike_surcharge_waiver":false,"station_id":"39","eightd_has_key_dispenser":false,"has_kiosk":true,"rental_methods":["CREDITCARD","KEY"],"rental_url":"http://app.fordgobike.com/Z6gL/SiFlGfIOTF?station_id=39","short_name":"SF-I19","capacity":27,"external_id":"86fae8b7-9d4f-499a-9437-422a07103c57","lon":-122.4368608,"name":"Scott St at Golden Gate Ave"},{"region_id":"3","lat":37.78127,"electric_bike_surcharge_waiver":false,"station_id":"41","eightd_has_key_dispenser":false,"has_kiosk":true,"rental_methods":["CREDITCARD","KEY"],"rental_url":"http://app.fordgobike.com/Z6gL/SiFlGfIOTF?station_id=41","short_name":"SF-I23-1","capacity":31,"external_id":"8b2524c3-cc5f-4a3d-97f6-224a540d3ecc","lon":-122.41874,"name":"Golden Gate Ave at Polk St"},{"region_id":"3","lat":37.77865,"electric_bike_surcharge_waiver":false,"station_id":"42","eightd_has_key_dispenser":false,"has_kiosk":true,"rental_methods":["CREDITCARD","KEY"],"rental_url":"http://app.fordgobike.com/Z6gL/SiFlGfIOTF?station_id=42","short_name":"SF-I23-2","capacity":19,"external_id":"64ce6633-9ea3-4dc1-b33f-c9d14c523a6a","lon":-122.41823,"name":"San Francisco City Hall (Polk St at Grove St)"},{"region_id":"3","lat":37.7787677,"electric_bike_surcharge_waiver":false,"station_id":"43","eightd_has_key_dispenser":false,"has_kiosk":true,"rental_methods":["CREDITCARD","KEY"],"rental_url":"http://app.fordgobike.com/Z6gL/SiFlGfIOTF?station_id=43","short_name":"SF-I24","capacity":31,"external_id":"54c91186-8493-44d1-ac4f-435350fee797","lon":-122.4159292,"name":"San Francisco Public Library (Grove St at Hyde St)"},{"region_id":"3","lat":37.7810737,"electric_bike_surcharge_waiver":false,"station_id":"44","eightd_has_key_dispenser":false,"has_kiosk":true,"rental_methods":["CREDITCARD","KEY"],"rental_url":"http://app.fordgobike.com/Z6gL/SiFlGfIOTF?station_id=44","short_name":"SF-I25","capacity":31,"external_id":"6ab85eb1-e112-4c57-8a44-110120d68a1d","lon":-122.4117382,"name":"Civic Center/UN Plaza BART Station (Market St at McAllister St)"},{"region_id":"12","lat":37.79013985185364,"electric_bike_surcharge_waiver":false,"station_id":"46","eightd_has_key_dispenser":false,"has_kiosk":true,"rental_methods":["CREDITCARD","KEY"],"rental_url":"http://app.fordgobike.com/Z6gL/SiFlGfIOTF?station_id=46","short_name":"OK-L12","capacity":15,"external_id":"6064907e-3871-4b2c-829b-d01406cee6fb","lon":-122.24237322807312,"name":"San Antonio Park"},{"region_id":"3","lat":37.78095459960753,"electric_bike_surcharge_waiver":false,"station_id":"47","eightd_has_key_dispenser":false,"has_kiosk":true,"rental_methods":["CREDITCARD","KEY"],"rental_url":"http://app.fordgobike.com/Z6gL/SiFlGfIOTF?station_id=47","short_name":"SF-I28","capacity":31,"external_id":"3c09035e-28d3-4031-9148-51c08343856b","lon":-122.39974915981291,"name":"4th St at Harrison St"},{"region_id":"3","lat":37.7807601,"electric_bike_surcharge_waiver":false,"station_id":"49","eightd_has_key_dispenser":false,"has_kiosk":true,"rental_methods":["CREDITCARD","KEY"],"rental_url":"http://app.fordgobike.com/Z6gL/SiFlGfIOTF?station_id=49","short_name":"SF-I29-2","capacity":30,"external_id":"a6bfff23-97d9-4a9d-b999-dd85168d8812","lon":-122.3949894,"name":"S Park St at 3rd St"},{"region_id":"3","lat":37.780526,"electric_bike_surcharge_waiver":false,"station_id":"50","eightd_has_key_dispenser":false,"has_kiosk":true,"rental_methods":["CREDITCARD","KEY"],"rental_url":"http://app.fordgobike.com/Z6gL/SiFlGfIOTF?station_id=50","short_name":"SF-I30","capacity":39,"external_id":"ba25987f-399d-49ce-9354-52785e48ea13","lon":-122.390288,"name":"2nd St at Townsend St"},{"region_id":"3","lat":37.77610091264586,"electric_bike_surcharge_waiver":false,"station_id":"51","eightd_has_key_dispenser":false,"has_kiosk":true,"rental_methods":["CREDITCARD","KEY"],"rental_url":"http://app.fordgobike.com/Z6gL/SiFlGfIOTF?station_id=51","short_name":"SF-J15","capacity":27,"external_id":"f2c2ba49-25e1-4493-8565-5df5af66e153","lon":-122.4530929327011,"name":"Parker Ave at McAllister St"},{"region_id":"3","lat":37.7774157,"electric_bike_surcharge_waiver":false,"station_id":"52","eightd_has_key_dispenser":false,"has_kiosk":true,"rental_methods":["CREDITCARD","KEY"],"rental_url":"http://app.fordgobike.com/Z6gL/SiFlGfIOTF?station_id=52","short_name":"SF-J17","capacity":27,"external_id":"73fccaab-205c-4b1e-a547-5fb0f2a58056","lon":-122.4418376,"name":"McAllister St at Baker St"},{"region_id":"3","lat":37.775946,"electric_bike_surcharge_waiver":false,"station_id":"53","eightd_has_key_dispenser":false,"has_kiosk":true,"rental_methods":["CREDITCARD","KEY"],"rental_url":"http://app.fordgobike.com/Z6gL/SiFlGfIOTF?station_id=53","short_name":"SF-J18","capacity":27,"external_id":"d533df76-e03c-4ef3-b928-968aaed45823","lon":-122.4377775,"name":"Grove St at Divisadero"},{"region_id":"3","lat":37.77754677017323,"electric_bike_surcharge_waiver":false,"station_id":"54","eightd_has_key_dispenser":false,"has_kiosk":true,"rental_methods":["CREDITCARD","KEY"],"rental_url":"http://app.fordgobike.com/Z6gL/SiFlGfIOTF?station_id=54","short_name":"SF-J19","capacity":23,"external_id":"2b140c2a-c038-4983-9290-d801db8a13f5","lon":-122.43327409029006,"name":"Alamo Square (Steiner St at Fulton St)"},{"region_id":"3","lat":37.7770527,"electric_bike_surcharge_waiver":false,"station_id":"55","eightd_has_key_dispenser":false,"has_kiosk":true,"rental_methods":["CREDITCARD","KEY"],"rental_url":"http://app.fordgobike.com/Z6gL/SiFlGfIOTF?station_id=55","short_name":"SF-J20","capacity":27,"external_id":"fde4cecd-7497-4bdb-a452-0e1a755e7759","lon":-122.4295585,"name":"Webster St at Grove St"},{"region_id":"3","lat":37.77341396997343,"electric_bike_surcharge_waiver":false,"station_id":"56","eightd_has_key_dispenser":false,"has_kiosk":true,"rental_methods":["CREDITCARD","KEY"],"rental_url":"http://app.fordgobike.com/Z6gL/SiFlGfIOTF?station_id=56","short_name":"SF-K21","capacity":27,"external_id":"891d3a5f-05ab-45f2-8427-b74a1ec12d5b","lon":-122.42731690406801,"name":"Koshland Park"},{"region_id":"3","lat":37.776619,"electric_bike_surcharge_waiver":false,"station_id":"58","eightd_has_key_dispenser":false,"has_kiosk":true,"rental_methods":["CREDITCARD","KEY"],"rental_url":"http://app.fordgobike.com/Z6gL/SiFlGfIOTF?station_id=58","short_name":"SF-J23-1","capacity":31,"external_id":"a9c46d92-b21e-489a-b922-3deb4ec1ab35","lon":-122.417385,"name":"Market St at 10th St"},{"region_id":"3","lat":37.774814,"electric_bike_surcharge_waiver":false,"station_id":"59","eightd_has_key_dispenser":false,"has_kiosk":true,"rental_methods":["CREDITCARD","KEY"],"rental_url":"http://app.fordgobike.com/Z6gL/SiFlGfIOTF?station_id=59","short_name":"SF-J23-2","capacity":27,"external_id":"4990eb75-f06e-4737-b5e8-03f8f45ffe66","lon":-122.418954,"name":"S Van Ness Ave at Market St"},{"region_id":"3","lat":37.77452040113685,"electric_bike_surcharge_waiver":false,"station_id":"60","eightd_has_key_dispenser":false,"has_kiosk":true,"rental_methods":["CREDITCARD","KEY"],"rental_url":"http://app.fordgobike.com/Z6gL/SiFlGfIOTF?station_id=60","short_name":"SF-J24","capacity":31,"external_id":"1822622c-b9e0-43fe-8bf9-9f26024aa426","lon":-122.4094493687153,"name":"8th St at Ringold St"},{"region_id":"3","lat":37.7765126,"electric_bike_surcharge_waiver":false,"station_id":"61","eightd_has_key_dispenser":false,"has_kiosk":true,"rental_methods":["CREDITCARD","KEY"],"rental_url":"http://app.fordgobike.com/Z6gL/SiFlGfIOTF?station_id=61","short_name":"SF-J25","capacity":27,"external_id":"6156f831-ca96-459d-aafe-685420751e4d","lon":-122.4113061,"name":"Howard St at 8th St"},{"region_id":"3","lat":37.77779057034257,"electric_bike_surcharge_waiver":false,"station_id":"62","eightd_has_key_dispenser":false,"has_kiosk":true,"rental_methods":["CREDITCARD","KEY"],"rental_url":"http://app.fordgobike.com/Z6gL/SiFlGfIOTF?station_id=62","short_name":"SF-J26","capacity":15,"external_id":"03eb8b17-d20f-400c-a98a-dcbc947228af","lon":-122.40643188357353,"name":"Victoria Manalo Draves Park"},{"region_id":"3","lat":37.775910222333366,"electric_bike_surcharge_waiver":false,"station_id":"63","eightd_has_key_dispenser":false,"has_kiosk":true,"rental_methods":["CREDITCARD","KEY"],"rental_url":"http://app.fordgobike.com/Z6gL/SiFlGfIOTF?station_id=63","short_name":"SF-J27","capacity":19,"external_id":"7d463937-ff3e-4fb2-802a-f5b7cca1159e","lon":-122.40257500673577,"name":"Bryant St at 6th St"},{"region_id":"3","lat":37.7767539,"electric_bike_surcharge_waiver":false,"station_id":"64","eightd_has_key_dispenser":false,"has_kiosk":true,"rental_methods":["CREDITCARD","KEY"],"rental_url":"http://app.fordgobike.com/Z6gL/SiFlGfIOTF?station_id=64","short_name":"SF-J28","capacity":27,"external_id":"5d14b4a5-720a-4849-8f65-78165d8bf63c","lon":-122.3990176,"name":"5th St at Brannan St"},{"region_id":"3","lat":37.77874161153677,"electric_bike_surcharge_waiver":false,"station_id":"66","eightd_has_key_dispenser":false,"has_kiosk":true,"rental_methods":["CREDITCARD","KEY"],"rental_url":"http://app.fordgobike.com/Z6gL/SiFlGfIOTF?station_id=66","short_name":"SF-J29-1","capacity":39,"external_id":"f7cd5ed5-b319-4723-93d2-188e3c3333e5","lon":-122.39274082710836,"name":"3rd St at Townsend St"},{"region_id":"3","lat":37.7766392,"electric_bike_surcharge_waiver":false,"station_id":"67","eightd_has_key_dispenser":false,"has_kiosk":true,"rental_methods":["CREDITCARD","KEY"],"rental_url":"http://app.fordgobike.com/Z6gL/SiFlGfIOTF?station_id=67","short_name":"SF J29-3","capacity":23,"external_id":"ff8ec9c4-4db4-43af-a99d-0ae25fcab6c1","lon":-122.3955263,"name":"San Francisco Caltrain Station 2  (Townsend St at 4th St)"},{"region_id":"3","lat":37.77331087889723,"electric_bike_surcharge_waiver":false,"station_id":"70","eightd_has_key_dispenser":false,"has_kiosk":true,"rental_methods":["CREDITCARD","KEY"],"rental_url":"http://app.fordgobike.com/Z6gL/SiFlGfIOTF?station_id=70","short_name":"SF-K17","capacity":31,"external_id":"5292350c-9e2a-4d8d-bed5-b2738edc1551","lon":-122.44429260492325,"name":"Central Ave at Fell St"},{"region_id":"3","lat":37.7730627,"electric_bike_surcharge_waiver":false,"station_id":"71","eightd_has_key_dispenser":false,"has_kiosk":true,"rental_methods":["CREDITCARD","KEY"],"rental_url":"http://app.fordgobike.com/Z6gL/SiFlGfIOTF?station_id=71","short_name":"SF-K18","capacity":27,"external_id":"b1a957d2-5e0e-4a99-bca3-7f3db21d30eb","lon":-122.4390777,"name":"Broderick St at Oak St"},{"region_id":"3","lat":37.772406,"electric_bike_surcharge_waiver":false,"station_id":"72","eightd_has_key_dispenser":false,"has_kiosk":true,"rental_methods":["CREDITCARD","KEY"],"rental_url":"http://app.fordgobike.com/Z6gL/SiFlGfIOTF?station_id=72","short_name":"SF-K19","capacity":27,"external_id":"5215d3e4-b85a-4499-a460-1b038f7a2bf1","lon":-122.4356498,"name":"Page St at Scott St"},{"region_id":"3","lat":37.7717933,"electric_bike_surcharge_waiver":false,"station_id":"73","eightd_has_key_dispenser":false,"has_kiosk":true,"rental_methods":["CREDITCARD","KEY"],"rental_url":"http://app.fordgobike.com/Z6gL/SiFlGfIOTF?station_id=73","short_name":"SF-K20","capacity":27,"external_id":"1de96988-6dfc-4f97-8570-6d8664b6e88a","lon":-122.4337079,"name":"Pierce St at Haight St"},{"region_id":"3","lat":37.776434819204745,"electric_bike_surcharge_waiver":false,"station_id":"74","eightd_has_key_dispenser":false,"has_kiosk":true,"rental_methods":["CREDITCARD","KEY"],"rental_url":"http://app.fordgobike.com/Z6gL/SiFlGfIOTF?station_id=74","short_name":"SF-J21","capacity":27,"external_id":"83b33e8d-bf8c-4a2a-8ee3-942834af27b4","lon":-122.42624402046204,"name":"Laguna St at Hayes St"},{"region_id":"3","lat":37.7737932060887,"electric_bike_surcharge_waiver":false,"station_id":"75","eightd_has_key_dispenser":false,"has_kiosk":true,"rental_methods":["CREDITCARD","KEY"],"rental_url":"http://app.fordgobike.com/Z6gL/SiFlGfIOTF?station_id=75","short_name":"SF-K22-1","capacity":35,"external_id":"bf116a73-3718-46c1-ac14-c295963150ae","lon":-122.42123901844025,"name":"Market St at Franklin St"},{"region_id":"3","lat":37.77166246221617,"electric_bike_surcharge_waiver":false,"station_id":"76","eightd_has_key_dispenser":false,"has_kiosk":true,"rental_methods":["CREDITCARD","KEY"],"rental_url":"http://app.fordgobike.com/Z6gL/SiFlGfIOTF?station_id=76","short_name":"SF-K22-2","capacity":19,"external_id":"d8b96e4a-7123-41db-a02c-e4ce48302578","lon":-122.42242321372034,"name":"McCoppin St at Valencia St"},{"region_id":"3","lat":37.7735069,"electric_bike_surcharge_waiver":false,"station_id":"77","eightd_has_key_dispenser":false,"has_kiosk":true,"rental_methods":["CREDITCARD","KEY"],"rental_url":"http://app.fordgobike.com/Z6gL/SiFlGfIOTF?station_id=77","short_name":"SF-K24","capacity":19,"external_id":"49754dc9-1925-4020-a599-704c9f064b03","lon":-122.4160402,"name":"11th St at Natoma St"},{"region_id":"3","lat":37.7737172,"electric_bike_surcharge_waiver":false,"station_id":"78","eightd_has_key_dispenser":false,"has_kiosk":true,"rental_methods":["CREDITCARD","KEY"],"rental_url":"http://app.fordgobike.com/Z6gL/SiFlGfIOTF?station_id=78","short_name":"SF-K25","capacity":27,"external_id":"16fbff76-56d1-4e2b-b735-ec21b8cd3181","lon":-122.4116467,"name":"Folsom St at 9th St"},{"region_id":"3","lat":37.7734919,"electric_bike_surcharge_waiver":false,"station_id":"79","eightd_has_key_dispenser":false,"has_kiosk":true,"rental_methods":["CREDITCARD","KEY"],"rental_url":"http://app.fordgobike.com/Z6gL/SiFlGfIOTF?station_id=79","short_name":"SF-K27","capacity":23,"external_id":"5f048eb1-0b31-49ac-9d17-9b9880dc0ae9","lon":-122.4036725,"name":"7th St at Brannan St"},{"region_id":"3","lat":37.77523486860597,"electric_bike_surcharge_waiver":false,"station_id":"80","eightd_has_key_dispenser":false,"has_kiosk":true,"rental_methods":["CREDITCARD","KEY"],"rental_url":"http://app.fordgobike.com/Z6gL/SiFlGfIOTF?station_id=80","short_name":"SF-K28","capacity":31,"external_id":"38a24ab3-8b5e-4d6d-804b-d4e89d19601e","lon":-122.39743709564209,"name":"Townsend St at 5th St"},{"region_id":"3","lat":37.77588,"electric_bike_surcharge_waiver":false,"station_id":"81","eightd_has_key_dispenser":false,"has_kiosk":true,"rental_methods":["CREDITCARD","KEY"],"rental_url":"http://app.fordgobike.com/Z6gL/SiFlGfIOTF?station_id=81","short_name":"SF-K29-1","capacity":35,"external_id":"5f90cd60-c199-4919-a20c-a2e417627b9d","lon":-122.39317,"name":"Berry St at 4th St"},{"region_id":"3","lat":37.7692005,"electric_bike_surcharge_waiver":false,"station_id":"84","eightd_has_key_dispenser":false,"has_kiosk":true,"rental_methods":["CREDITCARD","KEY"],"rental_url":"http://app.fordgobike.com/Z6gL/SiFlGfIOTF?station_id=84","short_name":"SF-L19","capacity":19,"external_id":"d006bbb9-ba51-4958-9c4f-cdd78527bfa1","lon":-122.4338119,"name":"Duboce Park"},{"region_id":"3","lat":37.7700831,"electric_bike_surcharge_waiver":false,"station_id":"85","eightd_has_key_dispenser":false,"has_kiosk":true,"rental_methods":["CREDITCARD","KEY"],"rental_url":"http://app.fordgobike.com/Z6gL/SiFlGfIOTF?station_id=85","short_name":"SF-L20","capacity":27,"external_id":"38a02670-3056-43fb-8271-20fbf6baa538","lon":-122.4291557,"name":"Church St at Duboce Ave"},{"region_id":"3","lat":37.7693053,"electric_bike_surcharge_waiver":false,"station_id":"86","eightd_has_key_dispenser":false,"has_kiosk":true,"rental_methods":["CREDITCARD","KEY"],"rental_url":"http://app.fordgobike.com/Z6gL/SiFlGfIOTF?station_id=86","short_name":"SF-L21","capacity":19,"external_id":"930fe54f-5572-4900-8910-6041386560bf","lon":-122.4268256,"name":"Market St at Dolores St"},{"region_id":"3","lat":37.769757,"electric_bike_surcharge_waiver":false,"station_id":"87","eightd_has_key_dispenser":false,"has_kiosk":true,"rental_methods":["CREDITCARD","KEY"],"rental_url":"http://app.fordgobike.com/Z6gL/SiFlGfIOTF?station_id=87","short_name":"SF-L24","capacity":27,"external_id":"04678a3e-1ec0-4493-a3cc-b92e74ab40ec","lon":-122.415674,"name":"Folsom St at 13th St"},{"region_id":"3","lat":37.7700298,"electric_bike_surcharge_waiver":false,"station_id":"88","eightd_has_key_dispenser":false,"has_kiosk":true,"rental_methods":["CREDITCARD","KEY"],"rental_url":"http://app.fordgobike.com/Z6gL/SiFlGfIOTF?station_id=88","short_name":"SF-L25","capacity":27,"external_id":"a0406a84-2708-4727-84bf-9ca96894ef45","lon":-122.4117258,"name":"11th St at Bryant St"},{"region_id":"3","lat":37.76921786152374,"electric_bike_surcharge_waiver":false,"station_id":"89","eightd_has_key_dispenser":false,"has_kiosk":true,"rental_methods":["CREDITCARD","KEY"],"rental_url":"http://app.fordgobike.com/Z6gL/SiFlGfIOTF?station_id=89","short_name":"SF-L26","capacity":27,"external_id":"2f20969c-74f7-4b6a-8e23-d4d1a31b75f5","lon":-122.40764558315276,"name":"Division St at Potrero Ave"},{"region_id":"3","lat":37.771058,"electric_bike_surcharge_waiver":false,"station_id":"90","eightd_has_key_dispenser":false,"has_kiosk":true,"rental_methods":["CREDITCARD","KEY"],"rental_url":"http://app.fordgobike.com/Z6gL/SiFlGfIOTF?station_id=90","short_name":"SF-L27","capacity":27,"external_id":"e4e5d6b1-a335-41a9-8efe-4c4d9294d6e2","lon":-122.402717,"name":"Townsend St at 7th St"},{"region_id":"3","lat":37.771762110313176,"electric_bike_surcharge_waiver":false,"station_id":"91","eightd_has_key_dispenser":false,"has_kiosk":true,"rental_methods":["CREDITCARD","KEY"],"rental_url":"http://app.fordgobike.com/Z6gL/SiFlGfIOTF?station_id=91","short_name":"SF-L28","capacity":23,"external_id":"afa2db8d-61bb-461a-8019-d5cd2aa1ec25","lon":-122.39843755960464,"name":"Berry St at King St"},{"region_id":"3","lat":37.772300631747626,"electric_bike_surcharge_waiver":false,"station_id":"92","eightd_has_key_dispenser":false,"has_kiosk":true,"rental_methods":["CREDITCARD","KEY"],"rental_url":"http://app.fordgobike.com/Z6gL/SiFlGfIOTF?station_id=92","short_name":"SF-L29","capacity":25,"external_id":"42952b44-cb91-43dd-bdbd-34e4f2a39046","lon":-122.39302754402159,"name":"Mission Bay Kids Park"},{"region_id":"3","lat":37.7704074,"electric_bike_surcharge_waiver":false,"station_id":"93","eightd_has_key_dispenser":false,"has_kiosk":true,"rental_methods":["CREDITCARD","KEY"],"rental_url":"http://app.fordgobike.com/Z6gL/SiFlGfIOTF?station_id=93","short_name":"SF-L30-1","capacity":27,"external_id":"28844b82-850f-4e02-95c6-59d6076e8516","lon":-122.3911984,"name":"4th St at Mission Bay Blvd S"},{"region_id":"3","lat":37.7662185,"electric_bike_surcharge_waiver":false,"station_id":"95","eightd_has_key_dispenser":false,"has_kiosk":true,"rental_methods":["CREDITCARD","KEY"],"rental_url":"http://app.fordgobike.com/Z6gL/SiFlGfIOTF?station_id=95","short_name":"SF-M20","capacity":27,"external_id":"0c9cb910-8442-4df6-a997-704d817583ab","lon":-122.4310597,"name":"Sanchez St at 15th St"},{"region_id":"3","lat":37.7662102,"electric_bike_surcharge_waiver":false,"station_id":"96","eightd_has_key_dispenser":false,"has_kiosk":true,"rental_methods":["CREDITCARD","KEY"],"rental_url":"http://app.fordgobike.com/Z6gL/SiFlGfIOTF?station_id=96","short_name":"SF-M21","capacity":19,"external_id":"fa33d61b-8ba5-4c23-9603-8d9ebf167d5d","lon":-122.4266136,"name":"Dolores St at 15th St"},{"region_id":"3","lat":37.7682646,"electric_bike_surcharge_waiver":false,"station_id":"97","eightd_has_key_dispenser":false,"has_kiosk":true,"rental_methods":["CREDITCARD","KEY"],"rental_url":"http://app.fordgobike.com/Z6gL/SiFlGfIOTF?station_id=97","short_name":"SF-M22-1","capacity":19,"external_id":"b65fc6af-b92c-41c5-8c63-e26cdfa3cda1","lon":-122.4201102,"name":"14th St at Mission St"},{"region_id":"3","lat":37.765052,"electric_bike_surcharge_waiver":false,"station_id":"98","eightd_has_key_dispenser":false,"has_kiosk":true,"rental_methods":["CREDITCARD","KEY"],"rental_url":"http://app.fordgobike.com/Z6gL/SiFlGfIOTF?station_id=98","short_name":"SF-M22-2","capacity":23,"external_id":"a5c8beca-df86-4cac-8229-ac1d7b010401","lon":-122.4218661,"name":"Valencia St at 16th St"},{"region_id":"3","lat":37.7670373,"electric_bike_surcharge_waiver":false,"station_id":"99","eightd_has_key_dispenser":false,"has_kiosk":true,"rental_methods":["CREDITCARD","KEY"],"rental_url":"http://app.fordgobike.com/Z6gL/SiFlGfIOTF?station_id=99","short_name":"SF-M24","capacity":19,"external_id":"314fd7e5-4335-4b89-ac9d-2c099bc33d9f","lon":-122.4154425,"name":"Folsom St at 15th St"},{"region_id":"3","lat":37.7671004,"electric_bike_surcharge_waiver":false,"station_id":"100","eightd_has_key_dispenser":false,"has_kiosk":true,"rental_methods":["CREDITCARD","KEY"],"rental_url":"http://app.fordgobike.com/Z6gL/SiFlGfIOTF?station_id=100","short_name":"SF-M25","capacity":19,"external_id":"f3e171b4-04b0-418f-9d82-e62f4df245d8","lon":-122.410662,"name":"Bryant St at 15th St"},{"region_id":"3","lat":37.767078504583665,"electric_bike_surcharge_waiver":false,"station_id":"101","eightd_has_key_dispenser":false,"has_kiosk":true,"rental_methods":["CREDITCARD","KEY"],"rental_url":"http://app.fordgobike.com/Z6gL/SiFlGfIOTF?station_id=101","short_name":"SF-M26","capacity":27,"external_id":"fdbfa7f9-d3eb-4c9d-ab6c-0e3300da314e","lon":-122.40735858678818,"name":"15th St at Potrero Ave"},{"region_id":"3","lat":37.7668828,"electric_bike_surcharge_waiver":false,"station_id":"102","eightd_has_key_dispenser":false,"has_kiosk":true,"rental_methods":["CREDITCARD","KEY"],"rental_url":"http://app.fordgobike.com/Z6gL/SiFlGfIOTF?station_id=102","short_name":"SF-M27","capacity":27,"external_id":"7a555b4b-c8fa-456d-a8bb-4cb7c8bbbffa","lon":-122.3995794,"name":"Irwin St at 8th St"},{"region_id":"3","lat":37.76704457969368,"electric_bike_surcharge_waiver":false,"station_id":"104","eightd_has_key_dispenser":false,"has_kiosk":true,"rental_methods":["CREDITCARD","KEY"],"rental_url":"http://app.fordgobike.com/Z6gL/SiFlGfIOTF?station_id=104","short_name":"SF-M30","capacity":35,"external_id":"482f48f4-7ed6-4e69-a778-a2aba0f39c80","lon":-122.39083349704742,"name":"4th St at 16th St"},{"region_id":"3","lat":37.764285,"electric_bike_surcharge_waiver":false,"station_id":"105","eightd_has_key_dispenser":false,"has_kiosk":true,"rental_methods":["CREDITCARD","KEY"],"rental_url":"http://app.fordgobike.com/Z6gL/SiFlGfIOTF?station_id=105","short_name":"SF-N20-1","capacity":19,"external_id":"84dfbc77-fe18-4e2c-9f89-9edb8aeaee2c","lon":-122.4318042,"name":"16th St at Prosper St"},{"region_id":"3","lat":37.7632417,"electric_bike_surcharge_waiver":false,"station_id":"106","eightd_has_key_dispenser":false,"has_kiosk":true,"rental_methods":["CREDITCARD","KEY"],"rental_url":"http://app.fordgobike.com/Z6gL/SiFlGfIOTF?station_id=106","short_name":"SF-N20-2","capacity":19,"external_id":"4cfebcba-c209-4f34-bcd3-2e6c4cdaee34","lon":-122.4306746,"name":"Sanchez St at 17th St"},{"region_id":"3","lat":37.7630152,"electric_bike_surcharge_waiver":false,"station_id":"107","eightd_has_key_dispenser":false,"has_kiosk":true,"rental_methods":["CREDITCARD","KEY"],"rental_url":"http://app.fordgobike.com/Z6gL/SiFlGfIOTF?station_id=107","short_name":"SF-N21","capacity":23,"external_id":"3ccf483a-ed9f-4327-bf9b-d72b4170ebfc","lon":-122.4264968,"name":"17th St at Dolores St"},{"region_id":"3","lat":37.76471008581914,"electric_bike_surcharge_waiver":false,"station_id":"108","eightd_has_key_dispenser":false,"has_kiosk":true,"rental_methods":["CREDITCARD","KEY"],"rental_url":"http://app.fordgobike.com/Z6gL/SiFlGfIOTF?station_id=108","short_name":"SF-N22-1A","capacity":11,"external_id":"d6ced8f4-977a-441a-86f0-27381b495794","lon":-122.41995692253113,"name":"16th St Mission BART"},{"region_id":"3","lat":37.7633158,"electric_bike_surcharge_waiver":false,"station_id":"109","eightd_has_key_dispenser":false,"has_kiosk":true,"rental_methods":["CREDITCARD","KEY"],"rental_url":"http://app.fordgobike.com/Z6gL/SiFlGfIOTF?station_id=109","short_name":"SF-N22-2","capacity":23,"external_id":"18fb1a9a-e3ee-4a18-a00d-45c1e0d14d16","lon":-122.4219039,"name":"17th St at Valencia St"},{"region_id":"3","lat":37.7637085,"electric_bike_surcharge_waiver":false,"station_id":"110","eightd_has_key_dispenser":false,"has_kiosk":true,"rental_methods":["CREDITCARD","KEY"],"rental_url":"http://app.fordgobike.com/Z6gL/SiFlGfIOTF?station_id=110","short_name":"SF-N23","capacity":23,"external_id":"d6ebe802-3db6-4106-b3c7-4791c801a91f","lon":-122.4152042,"name":"17th & Folsom Street Park (17th St at Folsom St)"},{"region_id":"3","lat":37.7638471,"electric_bike_surcharge_waiver":false,"station_id":"112","eightd_has_key_dispenser":false,"has_kiosk":true,"rental_methods":["CREDITCARD","KEY"],"rental_url":"http://app.fordgobike.com/Z6gL/SiFlGfIOTF?station_id=112","short_name":"SF-N24-2","capacity":19,"external_id":"4d2b40cb-88e2-4371-8532-b1e52e797c8c","lon":-122.4130036,"name":"Harrison St at 17th St"},{"region_id":"3","lat":37.764555,"electric_bike_surcharge_waiver":false,"station_id":"113","eightd_has_key_dispenser":false,"has_kiosk":true,"rental_methods":["CREDITCARD","KEY"],"rental_url":"http://app.fordgobike.com/Z6gL/SiFlGfIOTF?station_id=113","short_name":"SF-N25","capacity":19,"external_id":"906d869e-f513-4c60-ab76-15e2ddc68632","lon":-122.410345,"name":"Franklin Square"},{"region_id":"3","lat":37.7644783,"electric_bike_surcharge_waiver":false,"station_id":"114","eightd_has_key_dispenser":false,"has_kiosk":true,"rental_methods":["CREDITCARD","KEY"],"rental_url":"http://app.fordgobike.com/Z6gL/SiFlGfIOTF?station_id=114","short_name":"SF-N27","capacity":19,"external_id":"b3c834af-571f-4fee-808b-ae2a7c018b5c","lon":-122.4025701,"name":"Rhode Island St at 17th St"},{"region_id":"3","lat":37.7650259,"electric_bike_surcharge_waiver":false,"station_id":"115","eightd_has_key_dispenser":false,"has_kiosk":true,"rental_methods":["CREDITCARD","KEY"],"rental_url":"http://app.fordgobike.com/Z6gL/SiFlGfIOTF?station_id=115","short_name":"SF-N28","capacity":27,"external_id":"40aad9cb-3190-4190-b73f-95aa661cec18","lon":-122.3987734,"name":"Jackson Playground"},{"region_id":"3","lat":37.7648022,"electric_bike_surcharge_waiver":false,"station_id":"116","eightd_has_key_dispenser":false,"has_kiosk":true,"rental_methods":["CREDITCARD","KEY"],"rental_url":"http://app.fordgobike.com/Z6gL/SiFlGfIOTF?station_id=116","short_name":"SF-N29","capacity":31,"external_id":"9a97cfb1-8882-4dfc-a075-2c22d646e457","lon":-122.3947713,"name":"Mississippi St at 17th St"},{"region_id":"3","lat":37.7591769,"electric_bike_surcharge_waiver":false,"station_id":"118","eightd_has_key_dispenser":false,"has_kiosk":true,"rental_methods":["CREDITCARD","KEY"],"rental_url":"http://app.fordgobike.com/Z6gL/SiFlGfIOTF?station_id=118","short_name":"SF-O18","capacity":19,"external_id":"38a49a05-7382-4a28-b6b1-b57c6fe99745","lon":-122.4369431,"name":"Eureka Valley Recreation Center"},{"region_id":"3","lat":37.7610471,"electric_bike_surcharge_waiver":false,"station_id":"119","eightd_has_key_dispenser":false,"has_kiosk":true,"rental_methods":["CREDITCARD","KEY"],"rental_url":"http://app.fordgobike.com/Z6gL/SiFlGfIOTF?station_id=119","short_name":"SF-O19","capacity":15,"external_id":"cd7359fc-6798-48ed-af32-9d5f6cff9ffa","lon":-122.4326417,"name":"18th St at Noe St"},{"region_id":"3","lat":37.7614205,"electric_bike_surcharge_waiver":false,"station_id":"120","eightd_has_key_dispenser":false,"has_kiosk":true,"rental_methods":["CREDITCARD","KEY"],"rental_url":"http://app.fordgobike.com/Z6gL/SiFlGfIOTF?station_id=120","short_name":"SF-O21","capacity":27,"external_id":"53bea4e6-b907-424c-b519-d286ffb713d8","lon":-122.4264353,"name":"Mission Dolores Park"},{"region_id":"3","lat":37.7592103,"electric_bike_surcharge_waiver":false,"station_id":"121","eightd_has_key_dispenser":false,"has_kiosk":true,"rental_methods":["CREDITCARD","KEY"],"rental_url":"http://app.fordgobike.com/Z6gL/SiFlGfIOTF?station_id=121","short_name":"SF-O22","capacity":23,"external_id":"f6c0f2ed-11cc-4b74-9d03-f2b298c9bd1b","lon":-122.4213392,"name":"Mission Playground"},{"region_id":"3","lat":37.760299,"electric_bike_surcharge_waiver":false,"station_id":"122","eightd_has_key_dispenser":false,"has_kiosk":true,"rental_methods":["CREDITCARD","KEY"],"rental_url":"http://app.fordgobike.com/Z6gL/SiFlGfIOTF?station_id=122","short_name":"SF-O23","capacity":19,"external_id":"f8b56cb7-cb70-4097-99c4-446fc29600c9","lon":-122.418892,"name":"19th St at Mission St"},{"region_id":"3","lat":37.7605936,"electric_bike_surcharge_waiver":false,"station_id":"123","eightd_has_key_dispenser":false,"has_kiosk":true,"rental_methods":["CREDITCARD","KEY"],"rental_url":"http://app.fordgobike.com/Z6gL/SiFlGfIOTF?station_id=123","short_name":"SF-O24","capacity":19,"external_id":"aa6d4372-55f7-451a-a9ab-a546001fd8f7","lon":-122.4148171,"name":"Folsom St at 19th St"},{"region_id":"3","lat":37.7604469,"electric_bike_surcharge_waiver":false,"station_id":"124","eightd_has_key_dispenser":false,"has_kiosk":true,"rental_methods":["CREDITCARD","KEY"],"rental_url":"http://app.fordgobike.com/Z6gL/SiFlGfIOTF?station_id=124","short_name":"SF-O25-1","capacity":19,"external_id":"fb24c862-b4cf-45e1-9008-4812aa8370fd","lon":-122.410807,"name":"19th St at Florida St"},{"region_id":"3","lat":37.7592005,"electric_bike_surcharge_waiver":false,"station_id":"125","eightd_has_key_dispenser":false,"has_kiosk":true,"rental_methods":["CREDITCARD","KEY"],"rental_url":"http://app.fordgobike.com/Z6gL/SiFlGfIOTF?station_id=125","short_name":"SF-O25-2","capacity":15,"external_id":"b3af6593-57d4-4b9a-ba7a-b2d8051bc6b9","lon":-122.409851,"name":"20th St at Bryant St"},{"region_id":"3","lat":37.7616343,"electric_bike_surcharge_waiver":false,"station_id":"126","eightd_has_key_dispenser":false,"has_kiosk":true,"rental_methods":["CREDITCARD","KEY"],"rental_url":"http://app.fordgobike.com/Z6gL/SiFlGfIOTF?station_id=126","short_name":"SF-O30","capacity":31,"external_id":"0b596735-1b55-4aaa-8421-2ac1a39267b1","lon":-122.3906477,"name":"Esprit Park"},{"region_id":"3","lat":37.7567083,"electric_bike_surcharge_waiver":false,"station_id":"127","eightd_has_key_dispenser":false,"has_kiosk":true,"rental_methods":["CREDITCARD","KEY"],"rental_url":"http://app.fordgobike.com/Z6gL/SiFlGfIOTF?station_id=127","short_name":"SF-P22","capacity":23,"external_id":"08a1a4d2-e83a-4911-8743-41006698f4da","lon":-122.421025,"name":"Valencia St at 21st St"},{"region_id":"3","lat":37.758862,"electric_bike_surcharge_waiver":false,"station_id":"129","eightd_has_key_dispenser":false,"has_kiosk":true,"rental_methods":["CREDITCARD","KEY"],"rental_url":"http://app.fordgobike.com/Z6gL/SiFlGfIOTF?station_id=129","short_name":"SF-P24","capacity":19,"external_id":"cae028f4-b136-4297-8f28-559986e3f810","lon":-122.412544,"name":"Harrison St at 20th St"},{"region_id":"3","lat":37.75770404149008,"electric_bike_surcharge_waiver":false,"station_id":"130","eightd_has_key_dispenser":false,"has_kiosk":true,"rental_methods":["CREDITCARD","KEY"],"rental_url":"http://app.fordgobike.com/Z6gL/SiFlGfIOTF?station_id=130","short_name":"SF-P30","capacity":31,"external_id":"e7691d93-eed6-4388-b681-00ae0b455d23","lon":-122.39188492298126,"name":"22nd St Caltrain Station"},{"region_id":"3","lat":37.75500026037814,"electric_bike_surcharge_waiver":false,"station_id":"131","eightd_has_key_dispenser":false,"has_kiosk":true,"rental_methods":["CREDITCARD","KEY"],"rental_url":"http://app.fordgobike.com/Z6gL/SiFlGfIOTF?station_id=131","short_name":"SF-Q21-1","capacity":23,"external_id":"578169a8-b821-427d-934e-0b5329577ea4","lon":-122.42572769522668,"name":"22nd St at Dolores St"},{"region_id":"3","lat":37.7518194,"electric_bike_surcharge_waiver":false,"station_id":"132","eightd_has_key_dispenser":false,"has_kiosk":true,"rental_methods":["CREDITCARD","KEY"],"rental_url":"http://app.fordgobike.com/Z6gL/SiFlGfIOTF?station_id=132","short_name":"SF-Q21-2","capacity":19,"external_id":"2ed84bed-e42a-4f0d-a059-78a709748616","lon":-122.4266139,"name":"24th St at Chattanooga St"},{"region_id":"3","lat":37.7552126,"electric_bike_surcharge_waiver":false,"station_id":"133","eightd_has_key_dispenser":false,"has_kiosk":true,"rental_methods":["CREDITCARD","KEY"],"rental_url":"http://app.fordgobike.com/Z6gL/SiFlGfIOTF?station_id=133","short_name":"SF-Q22-1","capacity":23,"external_id":"759c388e-ab9b-40c2-ae96-ee5190264916","lon":-122.4209752,"name":"Valencia St at 22nd St"},{"region_id":"3","lat":37.7524278,"electric_bike_surcharge_waiver":false,"station_id":"134","eightd_has_key_dispenser":false,"has_kiosk":true,"rental_methods":["CREDITCARD","KEY"],"rental_url":"http://app.fordgobike.com/Z6gL/SiFlGfIOTF?station_id=134","short_name":"SF-Q22-2","capacity":23,"external_id":"3437ead2-e5e0-4e1c-86cf-d925a96b2260","lon":-122.4206278,"name":"Valencia St at 24th St"},{"region_id":"3","lat":37.7544356,"electric_bike_surcharge_waiver":false,"station_id":"136","eightd_has_key_dispenser":false,"has_kiosk":true,"rental_methods":["CREDITCARD","KEY"],"rental_url":"http://app.fordgobike.com/Z6gL/SiFlGfIOTF?station_id=136","short_name":"SF-Q26","capacity":15,"external_id":"a515bef8-28ce-40a1-ada0-785dc24306c7","lon":-122.4043639,"name":"23rd St at San Bruno Ave"},{"region_id":"3","lat":37.750506,"electric_bike_surcharge_waiver":false,"station_id":"137","eightd_has_key_dispenser":false,"has_kiosk":true,"rental_methods":["CREDITCARD","KEY"],"rental_url":"http://app.fordgobike.com/Z6gL/SiFlGfIOTF?station_id=137","short_name":"SF-R19","capacity":19,"external_id":"b6190b6b-1f42-4b69-ab79-d6cfa18adea7","lon":-122.4339496,"name":"Jersey St at Castro St"},{"region_id":"3","lat":37.7509004,"electric_bike_surcharge_waiver":false,"station_id":"138","eightd_has_key_dispenser":false,"has_kiosk":true,"rental_methods":["CREDITCARD","KEY"],"rental_url":"http://app.fordgobike.com/Z6gL/SiFlGfIOTF?station_id=138","short_name":"SF-R20","capacity":19,"external_id":"673c88d0-961a-45ff-b394-ac9a33e58d55","lon":-122.4274114,"name":"Jersey St at Church St"},{"region_id":"3","lat":37.7510171,"electric_bike_surcharge_waiver":false,"station_id":"139","eightd_has_key_dispenser":false,"has_kiosk":true,"rental_methods":["CREDITCARD","KEY"],"rental_url":"http://app.fordgobike.com/Z6gL/SiFlGfIOTF?station_id=139","short_name":"SF-R24","capacity":23,"external_id":"1d0da57a-5fe4-48af-b66b-5f380706eb4e","lon":-122.4119009,"name":"Garfield Square (25th St at Harrison St)"},{"region_id":"3","lat":37.7478584,"electric_bike_surcharge_waiver":false,"station_id":"140","eightd_has_key_dispenser":false,"has_kiosk":true,"rental_methods":["CREDITCARD","KEY"],"rental_url":"http://app.fordgobike.com/Z6gL/SiFlGfIOTF?station_id=140","short_name":"SF-S21","capacity":15,"external_id":"9202aa09-26ee-4220-9281-c66b7bbe7b38","lon":-122.4249863,"name":"Cesar Chavez St at Dolores St"},{"region_id":"3","lat":37.7479981,"electric_bike_surcharge_waiver":false,"station_id":"141","eightd_has_key_dispenser":false,"has_kiosk":true,"rental_methods":["CREDITCARD","KEY"],"rental_url":"http://app.fordgobike.com/Z6gL/SiFlGfIOTF?station_id=141","short_name":"SF-S22-1","capacity":19,"external_id":"fb66d43b-6d13-411c-ac2d-e26fbca0b0f2","lon":-122.4202187,"name":"Valencia St at Cesar Chavez St"},{"region_id":"3","lat":37.745738796183325,"electric_bike_surcharge_waiver":false,"station_id":"142","eightd_has_key_dispenser":false,"has_kiosk":true,"rental_methods":["CREDITCARD","KEY"],"rental_url":"http://app.fordgobike.com/Z6gL/SiFlGfIOTF?station_id=142","short_name":"SF-S22-2","capacity":15,"external_id":"aacc087a-f075-4682-a0df-be4c30c4a632","lon":-122.42214024066925,"name":"Guerrero Park"},{"region_id":"3","lat":37.7472996,"electric_bike_surcharge_waiver":false,"station_id":"144","eightd_has_key_dispenser":false,"has_kiosk":true,"rental_methods":["CREDITCARD","KEY"],"rental_url":"http://app.fordgobike.com/Z6gL/SiFlGfIOTF?station_id=144","short_name":"SF-S24","capacity":15,"external_id":"615bca10-5b2a-4b7e-876c-04c4d3d9e360","lon":-122.4114029,"name":"Precita Park"},{"region_id":"3","lat":37.7436839,"electric_bike_surcharge_waiver":false,"station_id":"145","eightd_has_key_dispenser":false,"has_kiosk":true,"rental_methods":["CREDITCARD","KEY"],"rental_url":"http://app.fordgobike.com/Z6gL/SiFlGfIOTF?station_id=145","short_name":"SF-T20","capacity":15,"external_id":"0fc2ae3f-b5ac-493b-bd93-8300b601f9db","lon":-122.4268059,"name":"29th St at Church St"},{"region_id":"3","lat":37.7423139,"electric_bike_surcharge_waiver":false,"station_id":"146","eightd_has_key_dispenser":false,"has_kiosk":true,"rental_methods":["CREDITCARD","KEY"],"rental_url":"http://app.fordgobike.com/Z6gL/SiFlGfIOTF?station_id=146","short_name":"SF-T21","capacity":15,"external_id":"c7879d87-34c8-4b23-9c07-250fb012bd4b","lon":-122.4231805,"name":"30th St at San Jose Ave"},{"region_id":"3","lat":37.7440667,"electric_bike_surcharge_waiver":false,"station_id":"147","eightd_has_key_dispenser":false,"has_kiosk":true,"rental_methods":["CREDITCARD","KEY"],"rental_url":"http://app.fordgobike.com/Z6gL/SiFlGfIOTF?station_id=147","short_name":"SF-T22","capacity":19,"external_id":"86e91819-05c0-4150-ab16-83d8480dc7f4","lon":-122.4214722,"name":"29th St at Tiffany Ave"},{"region_id":"13","lat":37.8297046,"electric_bike_surcharge_waiver":false,"station_id":"148","eightd_has_key_dispenser":false,"has_kiosk":true,"rental_methods":["CREDITCARD","KEY"],"rental_url":"http://app.fordgobike.com/Z6gL/SiFlGfIOTF?station_id=148","short_name":"EM-D2","capacity":23,"external_id":"8f409200-2adf-4b2d-b675-6befa5adc6e3","lon":-122.2876102,"name":"Horton St at 40th St"},{"region_id":"13","lat":37.8312752,"electric_bike_surcharge_waiver":false,"station_id":"149","eightd_has_key_dispenser":false,"has_kiosk":true,"rental_methods":["CREDITCARD","KEY"],"rental_url":"http://app.fordgobike.com/Z6gL/SiFlGfIOTF?station_id=149","short_name":"EM-D3","capacity":23,"external_id":"47f5b0d6-a2db-482c-9680-10759094c4a4","lon":-122.2856333,"name":"Emeryville Town Hall"},{"region_id":"13","lat":37.8312769,"electric_bike_surcharge_waiver":false,"station_id":"150","eightd_has_key_dispenser":false,"has_kiosk":true,"rental_methods":["CREDITCARD","KEY"],"rental_url":"http://app.fordgobike.com/Z6gL/SiFlGfIOTF?station_id=150","short_name":"EM-D4","capacity":15,"external_id":"789f4684-fb14-456b-ad02-87ee28d80ff1","lon":-122.2782669,"name":"Adeline St at 40th St"},{"region_id":"13","lat":37.8361823,"electric_bike_surcharge_waiver":false,"station_id":"151","eightd_has_key_dispenser":false,"has_kiosk":true,"rental_methods":["CREDITCARD","KEY"],"rental_url":"http://app.fordgobike.com/Z6gL/SiFlGfIOTF?station_id=151","short_name":"EM-C2","capacity":23,"external_id":"31871354-8b20-4566-9044-f70ac57026dc","lon":-122.2871801,"name":"53rd St at Hollis St"},{"region_id":"13","lat":37.83563220458518,"electric_bike_surcharge_waiver":false,"station_id":"152","eightd_has_key_dispenser":false,"has_kiosk":true,"rental_methods":["CREDITCARD","KEY"],"rental_url":"http://app.fordgobike.com/Z6gL/SiFlGfIOTF?station_id=152","short_name":"EM-C3","capacity":19,"external_id":"1eef0966-a6b6-4da1-8726-09989c2eb044","lon":-122.28105068206787,"name":"47th St at San Pablo Ave"},{"region_id":"13","lat":37.8409452,"electric_bike_surcharge_waiver":false,"station_id":"153","eightd_has_key_dispenser":false,"has_kiosk":true,"rental_methods":["CREDITCARD","KEY"],"rental_url":"http://app.fordgobike.com/Z6gL/SiFlGfIOTF?station_id=153","short_name":"EM-A1","capacity":19,"external_id":"5ea1329c-9fe6-4c24-9de7-34967a9fa428","lon":-122.2913604,"name":"59th St at Horton St"},{"region_id":"13","lat":37.8419238,"electric_bike_surcharge_waiver":false,"station_id":"154","eightd_has_key_dispenser":false,"has_kiosk":true,"rental_methods":["CREDITCARD","KEY"],"rental_url":"http://app.fordgobike.com/Z6gL/SiFlGfIOTF?station_id=154","short_name":"EM-A2","capacity":15,"external_id":"4fea6876-e80d-4a29-9966-820ac15cd3b4","lon":-122.2880451,"name":"Doyle St at 59th St"},{"region_id":"13","lat":37.84052116694969,"electric_bike_surcharge_waiver":false,"station_id":"155","eightd_has_key_dispenser":false,"has_kiosk":true,"rental_methods":["CREDITCARD","KEY"],"rental_url":"http://app.fordgobike.com/Z6gL/SiFlGfIOTF?station_id=155","short_name":"EM-B1","capacity":19,"external_id":"998afb43-2436-4f11-9ed1-380c9abc3e55","lon":-122.29352831840515,"name":"Emeryville Public Market"},{"region_id":"13","lat":37.8384435,"electric_bike_surcharge_waiver":false,"station_id":"156","eightd_has_key_dispenser":false,"has_kiosk":true,"rental_methods":["CREDITCARD","KEY"],"rental_url":"http://app.fordgobike.com/Z6gL/SiFlGfIOTF?station_id=156","short_name":"EM-B2","capacity":15,"external_id":"9da2121d-d8a8-464d-a396-cd41c9487bc4","lon":-122.2886647,"name":"Stanford Ave at Hollis St"},{"region_id":"13","lat":37.8467842,"electric_bike_surcharge_waiver":false,"station_id":"157","eightd_has_key_dispenser":false,"has_kiosk":true,"rental_methods":["CREDITCARD","KEY"],"rental_url":"http://app.fordgobike.com/Z6gL/SiFlGfIOTF?station_id=157","short_name":"EM-C1","capacity":19,"external_id":"83f44c93-d153-49b3-a8af-a6b4a7ea85db","lon":-122.2913761,"name":"65th St at Hollis St"},{"region_id":"12","lat":37.8332786,"electric_bike_surcharge_waiver":false,"station_id":"158","eightd_has_key_dispenser":false,"has_kiosk":true,"rental_methods":["CREDITCARD","KEY"],"rental_url":"http://app.fordgobike.com/Z6gL/SiFlGfIOTF?station_id=158","short_name":"OK-E4","capacity":19,"external_id":"c3f56bed-65e3-425b-999e-82b3a4f73aeb","lon":-122.2634901,"name":"Shattuck Ave at Telegraph Ave"},{"region_id":"12","lat":37.8160598,"electric_bike_surcharge_waiver":false,"station_id":"159","eightd_has_key_dispenser":false,"has_kiosk":true,"rental_methods":["CREDITCARD","KEY"],"rental_url":"http://app.fordgobike.com/Z6gL/SiFlGfIOTF?station_id=159","short_name":"OK-J3","capacity":19,"external_id":"92045ce2-112c-4cd9-ae42-39aac4f43e86","lon":-122.2782444,"name":"24th St at Market St"},{"region_id":"12","lat":37.8053183,"electric_bike_surcharge_waiver":false,"station_id":"160","eightd_has_key_dispenser":false,"has_kiosk":true,"rental_methods":["CREDITCARD","KEY"],"rental_url":"http://app.fordgobike.com/Z6gL/SiFlGfIOTF?station_id=160","short_name":"OK-M1","capacity":23,"external_id":"270425db-c369-4d4b-b8de-fae86c896a3c","lon":-122.2948365,"name":"West Oakland BART Station"},{"region_id":"12","lat":37.8005161,"electric_bike_surcharge_waiver":false,"station_id":"162","eightd_has_key_dispenser":false,"has_kiosk":true,"rental_methods":["CREDITCARD","KEY"],"rental_url":"http://app.fordgobike.com/Z6gL/SiFlGfIOTF?station_id=162","short_name":"OK-M6","capacity":27,"external_id":"09c20e68-4f8c-4723-ae8f-bac3dd927848","lon":-122.2720799,"name":"Franklin St at 9th St"},{"region_id":"12","lat":37.7973195,"electric_bike_surcharge_waiver":false,"station_id":"163","eightd_has_key_dispenser":false,"has_kiosk":true,"rental_methods":["CREDITCARD","KEY"],"rental_url":"http://app.fordgobike.com/Z6gL/SiFlGfIOTF?station_id=163","short_name":"OK-M7","capacity":27,"external_id":"ce264eb5-ebfe-4a03-8bd3-e319c32614ec","lon":-122.2653199,"name":"Lake Merritt BART Station"},{"region_id":"12","lat":37.814988230424156,"electric_bike_surcharge_waiver":false,"station_id":"164","eightd_has_key_dispenser":false,"has_kiosk":true,"rental_methods":["CREDITCARD","KEY"],"rental_url":"http://app.fordgobike.com/Z6gL/SiFlGfIOTF?station_id=164","short_name":"OK-J4","capacity":19,"external_id":"e9b45d4b-900e-4d9f-bb75-74dcea012859","lon":-122.27484405040741,"name":"Isabella St at San Pablo Ave"},{"region_id":"14","lat":37.8513755,"electric_bike_surcharge_waiver":false,"station_id":"166","eightd_has_key_dispenser":false,"has_kiosk":true,"rental_methods":["CREDITCARD","KEY"],"rental_url":"http://app.fordgobike.com/Z6gL/SiFlGfIOTF?station_id=166","short_name":"BK-A3","capacity":15,"external_id":"76d7eeec-413a-4940-9bc2-8222d35f8fdc","lon":-122.2525233,"name":"College Ave at Alcatraz Ave"},{"region_id":"12","lat":37.848152,"electric_bike_surcharge_waiver":false,"station_id":"167","eightd_has_key_dispenser":false,"has_kiosk":true,"rental_methods":["CREDITCARD","KEY"],"rental_url":"http://app.fordgobike.com/Z6gL/SiFlGfIOTF?station_id=167","short_name":"OK-A4","capacity":19,"external_id":"b4717e68-fb91-4e74-819f-4a9580a84ca5","lon":-122.2521599,"name":"College Ave at Harwood Ave"},{"region_id":"12","lat":37.849594967776646,"electric_bike_surcharge_waiver":false,"station_id":"168","eightd_has_key_dispenser":false,"has_kiosk":true,"rental_methods":["CREDITCARD","KEY"],"rental_url":"http://app.fordgobike.com/Z6gL/SiFlGfIOTF?station_id=168","short_name":"OK-B1","capacity":15,"external_id":"04059da9-ebad-42e8-928b-14e5e3edf26f","lon":-122.26556897163393,"name":"Alcatraz Ave at Shattuck Ave"},{"region_id":"12","lat":37.8465156,"electric_bike_surcharge_waiver":false,"station_id":"169","eightd_has_key_dispenser":false,"has_kiosk":true,"rental_methods":["CREDITCARD","KEY"],"rental_url":"http://app.fordgobike.com/Z6gL/SiFlGfIOTF?station_id=169","short_name":"OK-B2","capacity":19,"external_id":"48e675de-7b94-49ff-bb5e-fa146c243599","lon":-122.2653043,"name":"Bushrod Park"},{"region_id":"12","lat":37.8444927,"electric_bike_surcharge_waiver":false,"station_id":"170","eightd_has_key_dispenser":false,"has_kiosk":true,"rental_methods":["CREDITCARD","KEY"],"rental_url":"http://app.fordgobike.com/Z6gL/SiFlGfIOTF?station_id=170","short_name":"OK-B3","capacity":15,"external_id":"50518b51-6910-4f71-bb20-7b0d0fc4f4b7","lon":-122.261351,"name":"Telegraph Ave at 58th St"},{"region_id":"12","lat":37.84427875399067,"electric_bike_surcharge_waiver":false,"station_id":"171","eightd_has_key_dispenser":false,"has_kiosk":true,"rental_methods":["CREDITCARD","KEY"],"rental_url":"http://app.fordgobike.com/Z6gL/SiFlGfIOTF?station_id=171","short_name":"OK-B4","capacity":24,"external_id":"31146111-fc8f-4107-9087-1a160eefaa54","lon":-122.251900434494,"name":"Rockridge BART Station"},{"region_id":"12","lat":37.8417999,"electric_bike_surcharge_waiver":false,"station_id":"172","eightd_has_key_dispenser":false,"has_kiosk":true,"rental_methods":["CREDITCARD","KEY"],"rental_url":"http://app.fordgobike.com/Z6gL/SiFlGfIOTF?station_id=172","short_name":"OK-B5","capacity":15,"external_id":"5f13426c-73f2-4272-a498-f11ff007e8d3","lon":-122.2515349,"name":"College Ave at Taft Ave"},{"region_id":"12","lat":37.8403643,"electric_bike_surcharge_waiver":false,"station_id":"173","eightd_has_key_dispenser":false,"has_kiosk":true,"rental_methods":["CREDITCARD","KEY"],"rental_url":"http://app.fordgobike.com/Z6gL/SiFlGfIOTF?station_id=173","short_name":"OK-D3-1","capacity":15,"external_id":"cd4b4099-e2f5-4d46-bc1f-ed96d22548cc","lon":-122.2644881,"name":"Shattuck Ave at 55th St"},{"region_id":"12","lat":37.8368013,"electric_bike_surcharge_waiver":false,"station_id":"174","eightd_has_key_dispenser":false,"has_kiosk":true,"rental_methods":["CREDITCARD","KEY"],"rental_url":"http://app.fordgobike.com/Z6gL/SiFlGfIOTF?station_id=174","short_name":"OK-D3-2","capacity":19,"external_id":"dcf29fa9-3304-4f6f-90eb-ef48ada9dbfe","lon":-122.2640037,"name":"Shattuck Ave at 51st St"},{"region_id":"12","lat":37.8359455,"electric_bike_surcharge_waiver":false,"station_id":"175","eightd_has_key_dispenser":false,"has_kiosk":true,"rental_methods":["CREDITCARD","KEY"],"rental_url":"http://app.fordgobike.com/Z6gL/SiFlGfIOTF?station_id=175","short_name":"OK-D4","capacity":15,"external_id":"971307f6-5491-4112-beac-6b6960af6c0d","lon":-122.2623663,"name":"49th St at Telegraph Ave"},{"region_id":"12","lat":37.82840997305853,"electric_bike_surcharge_waiver":false,"station_id":"176","eightd_has_key_dispenser":false,"has_kiosk":true,"rental_methods":["CREDITCARD","KEY"],"rental_url":"http://app.fordgobike.com/Z6gL/SiFlGfIOTF?station_id=176","short_name":"OK-F4","capacity":31,"external_id":"1af8102a-589a-47ea-97ec-4589b71403aa","lon":-122.26631462574005,"name":"MacArthur BART Station"},{"region_id":"12","lat":37.8262863,"electric_bike_surcharge_waiver":false,"station_id":"177","eightd_has_key_dispenser":false,"has_kiosk":true,"rental_methods":["CREDITCARD","KEY"],"rental_url":"http://app.fordgobike.com/Z6gL/SiFlGfIOTF?station_id=177","short_name":"OK-G4","capacity":19,"external_id":"f3db9065-9d34-451e-ae8e-930612f8b8d7","lon":-122.2651002,"name":"MacArthur Blvd at Telegraph Ave"},{"region_id":"12","lat":37.8193814,"electric_bike_surcharge_waiver":false,"station_id":"178","eightd_has_key_dispenser":false,"has_kiosk":true,"rental_methods":["CREDITCARD","KEY"],"rental_url":"http://app.fordgobike.com/Z6gL/SiFlGfIOTF?station_id=178","short_name":"OK-H5","capacity":19,"external_id":"b96ee0c1-a83b-4f0c-9eae-4592672b3e86","lon":-122.2619284,"name":"Broadway at 30th St"},{"region_id":"12","lat":37.816073115011406,"electric_bike_surcharge_waiver":false,"station_id":"179","eightd_has_key_dispenser":false,"has_kiosk":true,"rental_methods":["CREDITCARD","KEY"],"rental_url":"http://app.fordgobike.com/Z6gL/SiFlGfIOTF?station_id=179","short_name":"OK-I5","capacity":19,"external_id":"a0b6621e-016f-4a91-918c-2140bfd9813c","lon":-122.26788640022278,"name":"Telegraph Ave at 27th St"},{"region_id":"12","lat":37.8126783,"electric_bike_surcharge_waiver":false,"station_id":"180","eightd_has_key_dispenser":false,"has_kiosk":true,"rental_methods":["CREDITCARD","KEY"],"rental_url":"http://app.fordgobike.com/Z6gL/SiFlGfIOTF?station_id=180","short_name":"OK-J5","capacity":19,"external_id":"74e8630e-7e2a-447f-ae87-5c9898c7346a","lon":-122.2687726,"name":"Telegraph Ave at 23rd St"},{"region_id":"12","lat":37.8113768,"electric_bike_surcharge_waiver":false,"station_id":"181","eightd_has_key_dispenser":false,"has_kiosk":true,"rental_methods":["CREDITCARD","KEY"],"rental_url":"http://app.fordgobike.com/Z6gL/SiFlGfIOTF?station_id=181","short_name":"OK-J6-1","capacity":27,"external_id":"cb84be53-d226-47fc-aa81-789c037361d4","lon":-122.2651925,"name":"Grand Ave at Webster St"},{"region_id":"12","lat":37.8090126,"electric_bike_surcharge_waiver":false,"station_id":"182","eightd_has_key_dispenser":false,"has_kiosk":true,"rental_methods":["CREDITCARD","KEY"],"rental_url":"http://app.fordgobike.com/Z6gL/SiFlGfIOTF?station_id=182","short_name":"OK-K5-2","capacity":35,"external_id":"6977a0c8-f59f-4d97-9868-e7b20cc2fdad","lon":-122.2682473,"name":"19th Street BART Station"},{"region_id":"12","lat":37.8087021,"electric_bike_surcharge_waiver":false,"station_id":"183","eightd_has_key_dispenser":false,"has_kiosk":true,"rental_methods":["CREDITCARD","KEY"],"rental_url":"http://app.fordgobike.com/Z6gL/SiFlGfIOTF?station_id=183","short_name":"OK-K5-1","capacity":27,"external_id":"f1ee54eb-4abe-4158-9c82-53bcc640fc77","lon":-122.2699271,"name":"Telegraph Ave at 19th St"},{"region_id":"12","lat":37.8013189,"electric_bike_surcharge_waiver":false,"station_id":"186","eightd_has_key_dispenser":false,"has_kiosk":true,"rental_methods":["CREDITCARD","KEY"],"rental_url":"http://app.fordgobike.com/Z6gL/SiFlGfIOTF?station_id=186","short_name":"OK-L7-2","capacity":27,"external_id":"b8398469-a2ba-4d86-8f5a-07f9883796bd","lon":-122.2626418,"name":"Lakeside Dr at 14th St"},{"region_id":"12","lat":37.796248,"electric_bike_surcharge_waiver":false,"station_id":"187","eightd_has_key_dispenser":false,"has_kiosk":true,"rental_methods":["CREDITCARD","KEY"],"rental_url":"http://app.fordgobike.com/Z6gL/SiFlGfIOTF?station_id=187","short_name":"OK-N6","capacity":27,"external_id":"759daccc-7f53-4b29-ab07-cf2d75a10610","lon":-122.279352,"name":"Jack London Square"},{"region_id":"12","lat":37.8426295,"electric_bike_surcharge_waiver":false,"station_id":"188","eightd_has_key_dispenser":false,"has_kiosk":true,"rental_methods":["CREDITCARD","KEY"],"rental_url":"http://app.fordgobike.com/Z6gL/SiFlGfIOTF?station_id=188","short_name":"OK-C2","capacity":15,"external_id":"9cb2f8b5-0d32-4a15-a4f1-3990595156de","lon":-122.267738,"name":"Dover St at 57th St"},{"region_id":"12","lat":37.8396488,"electric_bike_surcharge_waiver":false,"station_id":"189","eightd_has_key_dispenser":false,"has_kiosk":true,"rental_methods":["CREDITCARD","KEY"],"rental_url":"http://app.fordgobike.com/Z6gL/SiFlGfIOTF?station_id=189","short_name":"OK-D2","capacity":15,"external_id":"a247eef9-7ee3-4827-8ddb-fbd8daca7a0b","lon":-122.2717561,"name":"Genoa St at 55th St"},{"region_id":"12","lat":37.8302232,"electric_bike_surcharge_waiver":false,"station_id":"190","eightd_has_key_dispenser":false,"has_kiosk":true,"rental_methods":["CREDITCARD","KEY"],"rental_url":"http://app.fordgobike.com/Z6gL/SiFlGfIOTF?station_id=190","short_name":"OK-F3","capacity":23,"external_id":"b6e253b2-285d-4363-ae46-24e7c221cc08","lon":-122.2709501,"name":"West St at 40th St"},{"region_id":"12","lat":37.8305452,"electric_bike_surcharge_waiver":false,"station_id":"191","eightd_has_key_dispenser":false,"has_kiosk":true,"rental_methods":["CREDITCARD","KEY"],"rental_url":"http://app.fordgobike.com/Z6gL/SiFlGfIOTF?station_id=191","short_name":"OK-G2","capacity":15,"external_id":"316f6785-47aa-4e37-b81b-3cf829bf5120","lon":-122.2739367,"name":"Market St at 40th St"},{"region_id":"12","lat":37.82669558640968,"electric_bike_surcharge_waiver":false,"station_id":"192","eightd_has_key_dispenser":false,"has_kiosk":true,"rental_methods":["CREDITCARD","KEY"],"rental_url":"http://app.fordgobike.com/Z6gL/SiFlGfIOTF?station_id=192","short_name":"OK-G3","capacity":23,"external_id":"73295cf1-c5e1-41dd-8cd7-eab6512e8a34","lon":-122.27179706096648,"name":"37th St at West St"},{"region_id":"12","lat":37.8127441,"electric_bike_surcharge_waiver":false,"station_id":"193","eightd_has_key_dispenser":false,"has_kiosk":true,"rental_methods":["CREDITCARD","KEY"],"rental_url":"http://app.fordgobike.com/Z6gL/SiFlGfIOTF?station_id=193","short_name":"OK-H9-1","capacity":19,"external_id":"1c2e5680-719b-4674-9837-092c367594ba","lon":-122.2472152,"name":"Grand Ave at Santa Clara Ave"},{"region_id":"12","lat":37.8110807,"electric_bike_surcharge_waiver":false,"station_id":"194","eightd_has_key_dispenser":false,"has_kiosk":true,"rental_methods":["CREDITCARD","KEY"],"rental_url":"http://app.fordgobike.com/Z6gL/SiFlGfIOTF?station_id=194","short_name":"OK-H9-2","capacity":15,"external_id":"717e6e13-e1b2-4c13-944d-823a556c1635","lon":-122.2432677,"name":"Lakeshore Ave at Trestle Glen Rd"},{"region_id":"12","lat":37.81231409135146,"electric_bike_surcharge_waiver":false,"station_id":"195","eightd_has_key_dispenser":false,"has_kiosk":true,"rental_methods":["CREDITCARD","KEY"],"rental_url":"http://app.fordgobike.com/Z6gL/SiFlGfIOTF?station_id=195","short_name":"OK-I6","capacity":23,"external_id":"422ab254-5c2c-4a9c-9368-a49e8dab3ebf","lon":-122.26077854633331,"name":"Bay Pl at Vernon St"},{"region_id":"12","lat":37.80889393398715,"electric_bike_surcharge_waiver":false,"station_id":"196","eightd_has_key_dispenser":false,"has_kiosk":true,"rental_methods":["CREDITCARD","KEY"],"rental_url":"http://app.fordgobike.com/Z6gL/SiFlGfIOTF?station_id=196","short_name":"OK-I8","capacity":23,"external_id":"d5eedd49-f998-4b8a-9d1a-22853da216aa","lon":-122.25646018981932,"name":"Grand Ave at Perkins St"},{"region_id":"12","lat":37.8088479,"electric_bike_surcharge_waiver":false,"station_id":"197","eightd_has_key_dispenser":false,"has_kiosk":true,"rental_methods":["CREDITCARD","KEY"],"rental_url":"http://app.fordgobike.com/Z6gL/SiFlGfIOTF?station_id=197","short_name":"OK-I9","capacity":23,"external_id":"70b61cdb-7b5d-4455-84e4-9b9c697b6740","lon":-122.2496799,"name":"El Embarcadero at Grand Ave"},{"region_id":"12","lat":37.80781318217903,"electric_bike_surcharge_waiver":false,"station_id":"198","eightd_has_key_dispenser":false,"has_kiosk":true,"rental_methods":["CREDITCARD","KEY"],"rental_url":"http://app.fordgobike.com/Z6gL/SiFlGfIOTF?station_id=198","short_name":"OK-J6-2","capacity":31,"external_id":"5fdc3d6d-e9c8-47cf-874e-d2f012cfb217","lon":-122.26449608802795,"name":"Snow Park"},{"region_id":"12","lat":37.800213566969795,"electric_bike_surcharge_waiver":false,"station_id":"200","eightd_has_key_dispenser":false,"has_kiosk":true,"rental_methods":["CREDITCARD","KEY"],"rental_url":"http://app.fordgobike.com/Z6gL/SiFlGfIOTF?station_id=200","short_name":"OK-K9","capacity":19,"external_id":"7655722c-16c0-4996-9d92-4848ece2fc35","lon":-122.25381016731262,"name":"2nd Ave at E 18th St"},{"region_id":"12","lat":37.7976728,"electric_bike_surcharge_waiver":false,"station_id":"201","eightd_has_key_dispenser":false,"has_kiosk":true,"rental_methods":["CREDITCARD","KEY"],"rental_url":"http://app.fordgobike.com/Z6gL/SiFlGfIOTF?station_id=201","short_name":"OK-L8","capacity":23,"external_id":"7018fb4d-6799-4a20-8ea4-739f789cd096","lon":-122.2629973,"name":"10th St at Fallon St"},{"region_id":"12","lat":37.8007544,"electric_bike_surcharge_waiver":false,"station_id":"202","eightd_has_key_dispenser":false,"has_kiosk":true,"rental_methods":["CREDITCARD","KEY"],"rental_url":"http://app.fordgobike.com/Z6gL/SiFlGfIOTF?station_id=202","short_name":"OK-M5","capacity":27,"external_id":"8f34c934-e51e-4b0f-810c-916618b6cd90","lon":-122.2748943,"name":"Washington St at 8th St"},{"region_id":"12","lat":37.795194764385954,"electric_bike_surcharge_waiver":false,"station_id":"203","eightd_has_key_dispenser":false,"has_kiosk":true,"rental_methods":["CREDITCARD","KEY"],"rental_url":"http://app.fordgobike.com/Z6gL/SiFlGfIOTF?station_id=203","short_name":"OK-N7","capacity":27,"external_id":"7686b58c-88a3-4ca8-a898-d4bcccf520b3","lon":-122.27396965026855,"name":"Webster St at 2nd St"},{"region_id":"12","lat":37.8401858,"electric_bike_surcharge_waiver":false,"station_id":"204","eightd_has_key_dispenser":false,"has_kiosk":true,"rental_methods":["CREDITCARD","KEY"],"rental_url":"http://app.fordgobike.com/Z6gL/SiFlGfIOTF?station_id=204","short_name":"OK-C3","capacity":19,"external_id":"bf463e48-e629-4fed-9e7e-551e5c5a1af7","lon":-122.2618225,"name":"55th St at Telegraph Ave"},{"region_id":"12","lat":37.8388,"electric_bike_surcharge_waiver":false,"station_id":"205","eightd_has_key_dispenser":false,"has_kiosk":true,"rental_methods":["CREDITCARD","KEY"],"rental_url":"http://app.fordgobike.com/Z6gL/SiFlGfIOTF?station_id=205","short_name":"OK-C4","capacity":19,"external_id":"ffbf423a-2c1b-447a-a47d-9c1fddd152be","lon":-122.258732,"name":"Miles Ave at Cavour St"},{"region_id":"12","lat":37.8381269,"electric_bike_surcharge_waiver":false,"station_id":"206","eightd_has_key_dispenser":false,"has_kiosk":true,"rental_methods":["CREDITCARD","KEY"],"rental_url":"http://app.fordgobike.com/Z6gL/SiFlGfIOTF?station_id=206","short_name":"OK-C5","capacity":23,"external_id":"b31a7464-fb7f-4554-a89b-ef8b4c97a367","lon":-122.2512714,"name":"College Ave at Bryant Ave"},{"region_id":"12","lat":37.8357883,"electric_bike_surcharge_waiver":false,"station_id":"207","eightd_has_key_dispenser":false,"has_kiosk":true,"rental_methods":["CREDITCARD","KEY"],"rental_url":"http://app.fordgobike.com/Z6gL/SiFlGfIOTF?station_id=207","short_name":"OK-D5","capacity":23,"external_id":"67ed16db-4800-4671-bba4-e8ef52d6d74e","lon":-122.2516207,"name":"Broadway at Coronado Ave"},{"region_id":"5","lat":37.33279952386071,"electric_bike_surcharge_waiver":false,"station_id":"208","eightd_has_key_dispenser":false,"has_kiosk":true,"rental_methods":["CREDITCARD","KEY"],"rental_url":"http://app.fordgobike.com/Z6gL/SiFlGfIOTF?station_id=208","short_name":"SJ-N10-1","capacity":19,"external_id":"453a6d0d-31ce-4204-b2e1-2f9532e4b356","lon":-121.88385039567946,"name":"4th St at San Carlos St"},{"region_id":"12","lat":37.8335577,"electric_bike_surcharge_waiver":false,"station_id":"209","eightd_has_key_dispenser":false,"has_kiosk":true,"rental_methods":["CREDITCARD","KEY"],"rental_url":"http://app.fordgobike.com/Z6gL/SiFlGfIOTF?station_id=209","short_name":"OK-E3","capacity":19,"external_id":"1dedc5ae-882d-4bb0-bcfe-33604cc116df","lon":-122.2674183,"name":"45th St at MLK Jr Way"},{"region_id":"12","lat":37.8332935222321,"electric_bike_surcharge_waiver":false,"station_id":"210","eightd_has_key_dispenser":false,"has_kiosk":true,"rental_methods":["CREDITCARD","KEY"],"rental_url":"http://app.fordgobike.com/Z6gL/SiFlGfIOTF?station_id=210","short_name":"OK-E5","capacity":23,"external_id":"42019e90-fa74-4a77-9051-5dfed81a32de","lon":-122.25622415542603,"name":"45th St at Manila"},{"region_id":"12","lat":37.8277573,"electric_bike_surcharge_waiver":false,"station_id":"211","eightd_has_key_dispenser":false,"has_kiosk":true,"rental_methods":["CREDITCARD","KEY"],"rental_url":"http://app.fordgobike.com/Z6gL/SiFlGfIOTF?station_id=211","short_name":"OK-F5","capacity":23,"external_id":"76d741e6-6b22-4d6a-a16f-8dbd7ab51c6f","lon":-122.2567156,"name":"Broadway at 40th St"},{"region_id":"12","lat":37.824892529951114,"electric_bike_surcharge_waiver":false,"station_id":"212","eightd_has_key_dispenser":false,"has_kiosk":true,"rental_methods":["CREDITCARD","KEY"],"rental_url":"http://app.fordgobike.com/Z6gL/SiFlGfIOTF?station_id=212","short_name":"OK-G5","capacity":31,"external_id":"4298a24b-394a-491d-9d8f-df90f381b187","lon":-122.26043654610294,"name":"Mosswood Park"},{"region_id":"12","lat":37.8238474,"electric_bike_surcharge_waiver":false,"station_id":"213","eightd_has_key_dispenser":false,"has_kiosk":true,"rental_methods":["CREDITCARD","KEY"],"rental_url":"http://app.fordgobike.com/Z6gL/SiFlGfIOTF?station_id=213","short_name":"OK-H2","capacity":15,"external_id":"df2bc9c0-0377-46c8-83ea-ef7ef9dcdb4d","lon":-122.2811926,"name":"32nd St at Adeline St"},{"region_id":"12","lat":37.8233214,"electric_bike_surcharge_waiver":false,"station_id":"214","eightd_has_key_dispenser":false,"has_kiosk":true,"rental_methods":["CREDITCARD","KEY"],"rental_url":"http://app.fordgobike.com/Z6gL/SiFlGfIOTF?station_id=214","short_name":"OK-H3","capacity":19,"external_id":"77948e35-f1c6-4ff9-9d8c-787a16b20a27","lon":-122.2757325,"name":"Market St at Brockhurst St"},{"region_id":"12","lat":37.8225475,"electric_bike_surcharge_waiver":false,"station_id":"215","eightd_has_key_dispenser":false,"has_kiosk":true,"rental_methods":["CREDITCARD","KEY"],"rental_url":"http://app.fordgobike.com/Z6gL/SiFlGfIOTF?station_id=215","short_name":"OK-H4-3","capacity":23,"external_id":"b0f5f6bc-86db-4670-be8d-4112719fbd71","lon":-122.2663179,"name":"34th St at Telegraph Ave"},{"region_id":"12","lat":37.8178269,"electric_bike_surcharge_waiver":false,"station_id":"216","eightd_has_key_dispenser":false,"has_kiosk":true,"rental_methods":["CREDITCARD","KEY"],"rental_url":"http://app.fordgobike.com/Z6gL/SiFlGfIOTF?station_id=216","short_name":"OK-I3","capacity":19,"external_id":"8a7e7744-c516-46b9-b079-2a6d3afc2383","lon":-122.2756976,"name":"San Pablo Ave at 27th St"},{"region_id":"12","lat":37.8170154,"electric_bike_surcharge_waiver":false,"station_id":"217","eightd_has_key_dispenser":false,"has_kiosk":true,"rental_methods":["CREDITCARD","KEY"],"rental_url":"http://app.fordgobike.com/Z6gL/SiFlGfIOTF?station_id=217","short_name":"OK-I4","capacity":19,"external_id":"10334650-998e-4022-a883-2c3110edeb40","lon":-122.2717615,"name":"27th St at MLK Jr Way"},{"region_id":"12","lat":37.8123315,"electric_bike_surcharge_waiver":false,"station_id":"218","eightd_has_key_dispenser":false,"has_kiosk":true,"rental_methods":["CREDITCARD","KEY"],"rental_url":"http://app.fordgobike.com/Z6gL/SiFlGfIOTF?station_id=218","short_name":"OK-K2","capacity":15,"external_id":"1af8f901-8697-4128-b6c8-45c7c7f2c684","lon":-122.2851712,"name":"DeFremery Park"},{"region_id":"12","lat":37.8098236,"electric_bike_surcharge_waiver":false,"station_id":"219","eightd_has_key_dispenser":false,"has_kiosk":true,"rental_methods":["CREDITCARD","KEY"],"rental_url":"http://app.fordgobike.com/Z6gL/SiFlGfIOTF?station_id=219","short_name":"OK-K3","capacity":19,"external_id":"77476eaf-b0a1-473b-8e68-9d6a312545b1","lon":-122.2801923,"name":"Marston Campbell Park"},{"region_id":"12","lat":37.8113514,"electric_bike_surcharge_waiver":false,"station_id":"220","eightd_has_key_dispenser":false,"has_kiosk":true,"rental_methods":["CREDITCARD","KEY"],"rental_url":"http://app.fordgobike.com/Z6gL/SiFlGfIOTF?station_id=220","short_name":"OK-K4","capacity":19,"external_id":"924ea8a9-841d-43b5-99a9-bff7ca8d4b64","lon":-122.2734217,"name":"San Pablo Ave at MLK Jr Way"},{"region_id":"12","lat":37.794396,"electric_bike_surcharge_waiver":false,"station_id":"221","eightd_has_key_dispenser":false,"has_kiosk":true,"rental_methods":["CREDITCARD","KEY"],"rental_url":"http://app.fordgobike.com/Z6gL/SiFlGfIOTF?station_id=221","short_name":"OK-L10","capacity":15,"external_id":"ddc82a89-0b7e-41a7-ba69-05e3776d13cf","lon":-122.253842,"name":"6th Ave at E 12th St (Temporary Location)"},{"region_id":"12","lat":37.7927143,"electric_bike_surcharge_waiver":false,"station_id":"222","eightd_has_key_dispenser":false,"has_kiosk":true,"rental_methods":["CREDITCARD","KEY"],"rental_url":"http://app.fordgobike.com/Z6gL/SiFlGfIOTF?station_id=222","short_name":"OK-L11","capacity":15,"external_id":"4c05cf62-fcee-4f55-960f-aeccd2b09735","lon":-122.2487796,"name":"10th Ave at E 15th St"},{"region_id":"3","lat":37.7647652154977,"electric_bike_surcharge_waiver":false,"station_id":"223","eightd_has_key_dispenser":false,"has_kiosk":true,"rental_methods":["CREDITCARD","KEY"],"rental_url":"http://app.fordgobike.com/Z6gL/SiFlGfIOTF?station_id=223","short_name":"SF-N22-1B","capacity":19,"external_id":"cdc26b4b-f9dc-4b00-8cf4-1665b5bf8afd","lon":-122.42009103298186,"name":"16th St Mission BART Station 2"},{"region_id":"12","lat":37.78485466229441,"electric_bike_surcharge_waiver":false,"station_id":"224","eightd_has_key_dispenser":false,"has_kiosk":true,"rental_methods":["CREDITCARD","KEY"],"rental_url":"http://app.fordgobike.com/Z6gL/SiFlGfIOTF?station_id=224","short_name":"OK-L13","capacity":15,"external_id":"885754e6-88c9-46ed-9376-f1b035a71b54","lon":-122.23930478096008,"name":"21st Ave at International Blvd"},{"region_id":"12","lat":37.7851915,"electric_bike_surcharge_waiver":false,"station_id":"225","eightd_has_key_dispenser":false,"has_kiosk":true,"rental_methods":["CREDITCARD","KEY"],"rental_url":"http://app.fordgobike.com/Z6gL/SiFlGfIOTF?station_id=225","short_name":"OK-L14","capacity":15,"external_id":"6b89ea9f-180b-4954-8eab-6cfeb2b66027","lon":-122.2343822,"name":"23rd Ave at Foothill Blvd"},{"region_id":"12","lat":37.781123,"electric_bike_surcharge_waiver":false,"station_id":"226","eightd_has_key_dispenser":false,"has_kiosk":true,"rental_methods":["CREDITCARD","KEY"],"rental_url":"http://app.fordgobike.com/Z6gL/SiFlGfIOTF?station_id=226","short_name":"OK-L15","capacity":15,"external_id":"28925943-fddd-4f98-86ef-9f8dbd9bc62d","lon":-122.2329915,"name":"26th Ave at International Blvd"},{"region_id":"12","lat":37.7837569,"electric_bike_surcharge_waiver":false,"station_id":"227","eightd_has_key_dispenser":false,"has_kiosk":true,"rental_methods":["CREDITCARD","KEY"],"rental_url":"http://app.fordgobike.com/Z6gL/SiFlGfIOTF?station_id=227","short_name":"OK-L16","capacity":15,"external_id":"ea88423e-8147-4d3e-a51f-22430d3d728c","lon":-122.2226033,"name":"Foothill Blvd at Fruitvale Ave"},{"region_id":"12","lat":37.77993,"electric_bike_surcharge_waiver":false,"station_id":"228","eightd_has_key_dispenser":false,"has_kiosk":true,"rental_methods":["CREDITCARD","KEY"],"rental_url":"http://app.fordgobike.com/Z6gL/SiFlGfIOTF?station_id=228","short_name":"OK-L17","capacity":19,"external_id":"9ac7060b-f5d5-4ae4-be01-2571b1419d3f","lon":-122.2177284,"name":"Foothill Blvd at Harrington Ave"},{"region_id":"12","lat":37.7757452,"electric_bike_surcharge_waiver":false,"station_id":"229","eightd_has_key_dispenser":false,"has_kiosk":true,"rental_methods":["CREDITCARD","KEY"],"rental_url":"http://app.fordgobike.com/Z6gL/SiFlGfIOTF?station_id=229","short_name":"OK-L18","capacity":15,"external_id":"0d6a9101-5b40-4fdf-9315-e494af1baf7b","lon":-122.2130372,"name":"Foothill Blvd at 42nd Ave"},{"region_id":"12","lat":37.8107432,"electric_bike_surcharge_waiver":false,"station_id":"230","eightd_has_key_dispenser":false,"has_kiosk":true,"rental_methods":["CREDITCARD","KEY"],"rental_url":"http://app.fordgobike.com/Z6gL/SiFlGfIOTF?station_id=230","short_name":"OK-L2","capacity":15,"external_id":"a845426e-b1fe-4dab-b7a5-b6e581f4d7dc","lon":-122.2914153,"name":"14th St at Mandela Pkwy"},{"region_id":"12","lat":37.80874983465997,"electric_bike_surcharge_waiver":false,"station_id":"231","eightd_has_key_dispenser":false,"has_kiosk":true,"rental_methods":["CREDITCARD","KEY"],"rental_url":"http://app.fordgobike.com/Z6gL/SiFlGfIOTF?station_id=231","short_name":"OK-L3","capacity":19,"external_id":"ac5e3053-b3f5-4396-9114-7650b67c7090","lon":-122.28328227996825,"name":"14th St at Filbert St"},{"region_id":"12","lat":37.8061628,"electric_bike_surcharge_waiver":false,"station_id":"232","eightd_has_key_dispenser":false,"has_kiosk":true,"rental_methods":["CREDITCARD","KEY"],"rental_url":"http://app.fordgobike.com/Z6gL/SiFlGfIOTF?station_id=232","short_name":"OK-L4","capacity":19,"external_id":"e4921f52-7a6c-4baa-b057-ddc7051980ca","lon":-122.2760402,"name":"MLK Jr Way at 14th St"},{"region_id":"12","lat":37.795913,"electric_bike_surcharge_waiver":false,"station_id":"233","eightd_has_key_dispenser":false,"has_kiosk":true,"rental_methods":["CREDITCARD","KEY"],"rental_url":"http://app.fordgobike.com/Z6gL/SiFlGfIOTF?station_id=233","short_name":"OK-L9","capacity":19,"external_id":"ddc41c7f-69d7-48a9-a992-d0c543fd6f5e","lon":-122.255547,"name":"4th Ave at E 12th St (Temporary Location)"},{"region_id":"12","lat":37.778058,"electric_bike_surcharge_waiver":false,"station_id":"234","eightd_has_key_dispenser":false,"has_kiosk":true,"rental_methods":["CREDITCARD","KEY"],"rental_url":"http://app.fordgobike.com/Z6gL/SiFlGfIOTF?station_id=234","short_name":"OK-M16","capacity":19,"external_id":"51c15f4f-80bb-4c55-9675-70c184bb4318","lon":-122.2254,"name":"Fruitvale Ave at International Blvd"},{"region_id":"12","lat":37.8072393,"electric_bike_surcharge_waiver":false,"station_id":"235","eightd_has_key_dispenser":false,"has_kiosk":true,"rental_methods":["CREDITCARD","KEY"],"rental_url":"http://app.fordgobike.com/Z6gL/SiFlGfIOTF?station_id=235","short_name":"OK-M2","capacity":19,"external_id":"e0c59a44-7e14-43bd-99e2-a294b3fc0951","lon":-122.2893702,"name":"Union St at 10th St"},{"region_id":"12","lat":37.8036865,"electric_bike_surcharge_waiver":false,"station_id":"236","eightd_has_key_dispenser":false,"has_kiosk":true,"rental_methods":["CREDITCARD","KEY"],"rental_url":"http://app.fordgobike.com/Z6gL/SiFlGfIOTF?station_id=236","short_name":"OK-M3","capacity":23,"external_id":"2d1b2144-cbf3-4077-8fbb-400c7536613c","lon":-122.282497,"name":"Market St at 8th St"},{"region_id":"12","lat":37.7752321,"electric_bike_surcharge_waiver":false,"station_id":"237","eightd_has_key_dispenser":false,"has_kiosk":true,"rental_methods":["CREDITCARD","KEY"],"rental_url":"http://app.fordgobike.com/Z6gL/SiFlGfIOTF?station_id=237","short_name":"OK-N17","capacity":15,"external_id":"cf1d4581-61da-4ade-97d5-2f856cdb0aad","lon":-122.2244982,"name":"Fruitvale BART Station"},{"region_id":"14","lat":37.8717192,"electric_bike_surcharge_waiver":false,"station_id":"238","eightd_has_key_dispenser":false,"has_kiosk":true,"rental_methods":["CREDITCARD","KEY"],"rental_url":"http://app.fordgobike.com/Z6gL/SiFlGfIOTF?station_id=238","short_name":"BK-C6","capacity":23,"external_id":"3d923c3c-46ea-4a46-84b7-e95916cdb0bd","lon":-122.2730677,"name":"MLK Jr Way at University Ave"},{"region_id":"14","lat":37.8688126,"electric_bike_surcharge_waiver":false,"station_id":"239","eightd_has_key_dispenser":false,"has_kiosk":true,"rental_methods":["CREDITCARD","KEY"],"rental_url":"http://app.fordgobike.com/Z6gL/SiFlGfIOTF?station_id=239","short_name":"BK-E9-1","capacity":23,"external_id":"874b7cea-2d90-4978-bc49-b9a38b597f81","lon":-122.258764,"name":"Bancroft Way at Telegraph Ave"},{"region_id":"14","lat":37.8660431,"electric_bike_surcharge_waiver":false,"station_id":"240","eightd_has_key_dispenser":false,"has_kiosk":true,"rental_methods":["CREDITCARD","KEY"],"rental_url":"http://app.fordgobike.com/Z6gL/SiFlGfIOTF?station_id=240","short_name":"BK-E9-2","capacity":19,"external_id":"318b8d9d-cf10-41a5-988a-860a07f0543d","lon":-122.2588044,"name":"Haste St at Telegraph Ave"},{"region_id":"14","lat":37.8524766,"electric_bike_surcharge_waiver":false,"station_id":"241","eightd_has_key_dispenser":false,"has_kiosk":true,"rental_methods":["CREDITCARD","KEY"],"rental_url":"http://app.fordgobike.com/Z6gL/SiFlGfIOTF?station_id=241","short_name":"BK-H6","capacity":23,"external_id":"25e8f173-3c6f-43d5-9806-af1c72f6f3d8","lon":-122.2702132,"name":"Ashby BART Station"},{"region_id":"14","lat":37.86012459911685,"electric_bike_surcharge_waiver":false,"station_id":"242","eightd_has_key_dispenser":false,"has_kiosk":true,"rental_methods":["CREDITCARD","KEY"],"rental_url":"http://app.fordgobike.com/Z6gL/SiFlGfIOTF?station_id=242","short_name":"BK-F7","capacity":23,"external_id":"713e3a3a-c5a6-4f48-a122-c536326bc954","lon":-122.2693844139576,"name":"Milvia St at Derby St"},{"region_id":"14","lat":37.8693603,"electric_bike_surcharge_waiver":false,"station_id":"243","eightd_has_key_dispenser":false,"has_kiosk":true,"rental_methods":["CREDITCARD","KEY"],"rental_url":"http://app.fordgobike.com/Z6gL/SiFlGfIOTF?station_id=243","short_name":"BK-E10","capacity":30,"external_id":"a646ab7e-7396-4009-abb8-0b51171325ff","lon":-122.2543374,"name":"Bancroft Way at College Ave"},{"region_id":"14","lat":37.87367621459825,"electric_bike_surcharge_waiver":false,"station_id":"244","eightd_has_key_dispenser":false,"has_kiosk":true,"rental_methods":["CREDITCARD","KEY"],"rental_url":"http://app.fordgobike.com/Z6gL/SiFlGfIOTF?station_id=244","short_name":"BK-C7","capacity":23,"external_id":"b43472b6-2dfc-451e-a668-abc1a1099b6e","lon":-122.26848721504211,"name":"Shattuck Ave at Hearst Ave"},{"region_id":"14","lat":37.870139,"electric_bike_surcharge_waiver":false,"station_id":"245","eightd_has_key_dispenser":false,"has_kiosk":true,"rental_methods":["CREDITCARD","KEY"],"rental_url":"http://app.fordgobike.com/Z6gL/SiFlGfIOTF?station_id=245","short_name":"BK-D7-1","capacity":29,"external_id":"7adb5dde-e34a-4964-98d3-f64a940beacb","lon":-122.268422,"name":"Downtown Berkeley BART"},{"region_id":"14","lat":37.8690599,"electric_bike_surcharge_waiver":false,"station_id":"246","eightd_has_key_dispenser":false,"has_kiosk":true,"rental_methods":["CREDITCARD","KEY"],"rental_url":"http://app.fordgobike.com/Z6gL/SiFlGfIOTF?station_id=246","short_name":"BK-D7-2","capacity":27,"external_id":"99665404-d98e-472c-9f68-0016be3601db","lon":-122.270556,"name":"Berkeley Civic Center"},{"region_id":"14","lat":37.8677892,"electric_bike_surcharge_waiver":false,"station_id":"247","eightd_has_key_dispenser":false,"has_kiosk":true,"rental_methods":["CREDITCARD","KEY"],"rental_url":"http://app.fordgobike.com/Z6gL/SiFlGfIOTF?station_id=247","short_name":"BK-E8","capacity":23,"external_id":"a4176220-2f51-47dd-82c4-342dc97867bd","lon":-122.2658964,"name":"Fulton St at Bancroft Way"},{"region_id":"14","lat":37.8559558,"electric_bike_surcharge_waiver":false,"station_id":"248","eightd_has_key_dispenser":false,"has_kiosk":true,"rental_methods":["CREDITCARD","KEY"],"rental_url":"http://app.fordgobike.com/Z6gL/SiFlGfIOTF?station_id=248","short_name":"BK-H9","capacity":19,"external_id":"f630e61e-56b0-4f69-a91b-2e85b44dfcb7","lon":-122.2597949,"name":"Telegraph Ave at Ashby Ave"},{"region_id":"14","lat":37.8584732,"electric_bike_surcharge_waiver":false,"station_id":"249","eightd_has_key_dispenser":false,"has_kiosk":true,"rental_methods":["CREDITCARD","KEY"],"rental_url":"http://app.fordgobike.com/Z6gL/SiFlGfIOTF?station_id=249","short_name":"BK-H10","capacity":19,"external_id":"f33b866f-ce2e-4d48-9b2a-cf566ba59039","lon":-122.2532529,"name":"Russell St at College Ave"},{"region_id":"14","lat":37.873558,"electric_bike_surcharge_waiver":false,"station_id":"250","eightd_has_key_dispenser":false,"has_kiosk":true,"rental_methods":["CREDITCARD","KEY"],"rental_url":"http://app.fordgobike.com/Z6gL/SiFlGfIOTF?station_id=250","short_name":"BK-C5","capacity":27,"external_id":"930e63db-726c-4276-b3c3-fc51f32b3ddd","lon":-122.283093,"name":"North Berkeley BART Station"},{"region_id":"14","lat":37.87055532905745,"electric_bike_surcharge_waiver":false,"station_id":"251","eightd_has_key_dispenser":false,"has_kiosk":true,"rental_methods":["CREDITCARD","KEY"],"rental_url":"http://app.fordgobike.com/Z6gL/SiFlGfIOTF?station_id=251","short_name":"BK-D5","capacity":15,"external_id":"f82dccaa-6309-4a54-a405-fe94412f71d6","lon":-122.27972030639648,"name":"California St at University Ave"},{"region_id":"14","lat":37.8658466,"electric_bike_surcharge_waiver":false,"station_id":"252","eightd_has_key_dispenser":false,"has_kiosk":true,"rental_methods":["CREDITCARD","KEY"],"rental_url":"http://app.fordgobike.com/Z6gL/SiFlGfIOTF?station_id=252","short_name":"BK-E7","capacity":23,"external_id":"76709a87-13a8-4df3-a971-073c79fcf6b0","lon":-122.2674431,"name":"Channing Way at Shattuck Ave"},{"region_id":"14","lat":37.86641794050319,"electric_bike_surcharge_waiver":false,"station_id":"253","eightd_has_key_dispenser":false,"has_kiosk":true,"rental_methods":["CREDITCARD","KEY"],"rental_url":"http://app.fordgobike.com/Z6gL/SiFlGfIOTF?station_id=253","short_name":"BK-E10-","capacity":23,"external_id":"bd5a77f6-ebbe-496b-9887-069c87c7a423","lon":-122.25379943847655,"name":"Haste St at College Ave"},{"region_id":"14","lat":37.88022244590679,"electric_bike_surcharge_waiver":false,"station_id":"254","eightd_has_key_dispenser":false,"has_kiosk":true,"rental_methods":["CREDITCARD","KEY"],"rental_url":"http://app.fordgobike.com/Z6gL/SiFlGfIOTF?station_id=254","short_name":"BK-A7","capacity":15,"external_id":"618c724d-9025-470b-8621-4500a9b69773","lon":-122.26959228515624,"name":"Vine St at Shattuck Ave"},{"region_id":"14","lat":37.876572549106854,"electric_bike_surcharge_waiver":false,"station_id":"255","eightd_has_key_dispenser":false,"has_kiosk":true,"rental_methods":["CREDITCARD","KEY"],"rental_url":"http://app.fordgobike.com/Z6gL/SiFlGfIOTF?station_id=255","short_name":"BK-B7","capacity":23,"external_id":"5d2b4506-3169-4f9a-af15-31c78768917a","lon":-122.26952791213989,"name":"Virginia St at Shattuck Ave"},{"region_id":"14","lat":37.875111692864444,"electric_bike_surcharge_waiver":false,"station_id":"256","eightd_has_key_dispenser":false,"has_kiosk":true,"rental_methods":["CREDITCARD","KEY"],"rental_url":"http://app.fordgobike.com/Z6gL/SiFlGfIOTF?station_id=256","short_name":"BK-B9","capacity":15,"external_id":"c8b190cd-c4a1-4597-bb18-3d9cc786e9cb","lon":-122.26055324077606,"name":"Hearst Ave at Euclid Ave"},{"region_id":"14","lat":37.870407115465376,"electric_bike_surcharge_waiver":false,"station_id":"257","eightd_has_key_dispenser":false,"has_kiosk":true,"rental_methods":["CREDITCARD","KEY"],"rental_url":"http://app.fordgobike.com/Z6gL/SiFlGfIOTF?station_id=257","short_name":"BK-C1","capacity":15,"external_id":"08f875e7-d696-4a4d-9656-43f07a953de4","lon":-122.29967594146727,"name":"Fifth St at Delaware St"},{"region_id":"14","lat":37.8723555,"electric_bike_surcharge_waiver":false,"station_id":"258","eightd_has_key_dispenser":false,"has_kiosk":true,"rental_methods":["CREDITCARD","KEY"],"rental_url":"http://app.fordgobike.com/Z6gL/SiFlGfIOTF?station_id=258","short_name":"BK-C8","capacity":23,"external_id":"3494fb75-e57c-491f-a6e7-c2440c3a37e3","lon":-122.2664467,"name":"University Ave at Oxford St"},{"region_id":"14","lat":37.866249,"electric_bike_surcharge_waiver":false,"station_id":"259","eightd_has_key_dispenser":false,"has_kiosk":true,"rental_methods":["CREDITCARD","KEY"],"rental_url":"http://app.fordgobike.com/Z6gL/SiFlGfIOTF?station_id=259","short_name":"BK-D1","capacity":23,"external_id":"d1e31ce1-f129-48e0-bfe9-ba2674ed2daa","lon":-122.2993708,"name":"Addison St at Fourth St"},{"region_id":"14","lat":37.869966707604036,"electric_bike_surcharge_waiver":false,"station_id":"262","eightd_has_key_dispenser":false,"has_kiosk":true,"rental_methods":["CREDITCARD","KEY"],"rental_url":"http://app.fordgobike.com/Z6gL/SiFlGfIOTF?station_id=262","short_name":"BK-D4","capacity":15,"external_id":"0b81b2ae-d9bf-4b66-b5e0-687205d4bc12","lon":-122.28653311729431,"name":"West St at University Ave"},{"region_id":"14","lat":37.8628271,"electric_bike_surcharge_waiver":false,"station_id":"263","eightd_has_key_dispenser":false,"has_kiosk":true,"rental_methods":["CREDITCARD","KEY"],"rental_url":"http://app.fordgobike.com/Z6gL/SiFlGfIOTF?station_id=263","short_name":"BK-E2","capacity":23,"external_id":"40205ede-0c43-44ab-8c9c-0d8ecd9f854e","lon":-122.2902305,"name":"Channing Way at San Pablo Ave"},{"region_id":"14","lat":37.8588682,"electric_bike_surcharge_waiver":false,"station_id":"265","eightd_has_key_dispenser":false,"has_kiosk":true,"rental_methods":["CREDITCARD","KEY"],"rental_url":"http://app.fordgobike.com/Z6gL/SiFlGfIOTF?station_id=265","short_name":"BK-F2","capacity":15,"external_id":"3845994c-9953-44ce-b75b-43d4cb5216e8","lon":-122.2912095,"name":"Ninth St at Parker St"},{"region_id":"14","lat":37.8624644,"electric_bike_surcharge_waiver":false,"station_id":"266","eightd_has_key_dispenser":false,"has_kiosk":true,"rental_methods":["CREDITCARD","KEY"],"rental_url":"http://app.fordgobike.com/Z6gL/SiFlGfIOTF?station_id=266","short_name":"BK-F8","capacity":23,"external_id":"70cd5518-091f-4331-a80e-53df97db1a81","lon":-122.2647911,"name":"Parker St at Fulton St"},{"region_id":"14","lat":37.8618037,"electric_bike_surcharge_waiver":false,"station_id":"267","eightd_has_key_dispenser":false,"has_kiosk":true,"rental_methods":["CREDITCARD","KEY"],"rental_url":"http://app.fordgobike.com/Z6gL/SiFlGfIOTF?station_id=267","short_name":"BK-F10","capacity":19,"external_id":"a4ea165b-5dcf-4b41-ac2d-68718f98b147","lon":-122.2535687,"name":"Derby St at College Ave"},{"region_id":"14","lat":37.85749021457153,"electric_bike_surcharge_waiver":false,"station_id":"268","eightd_has_key_dispenser":false,"has_kiosk":true,"rental_methods":["CREDITCARD","KEY"],"rental_url":"http://app.fordgobike.com/Z6gL/SiFlGfIOTF?station_id=268","short_name":"BK-G8","capacity":15,"external_id":"429a3ffa-e0df-4497-b6e9-91e3ccb12c1c","lon":-122.26157784461977,"name":"Ellsworth St at Russell St"},{"region_id":"14","lat":37.8623199,"electric_bike_surcharge_waiver":false,"station_id":"269","eightd_has_key_dispenser":false,"has_kiosk":true,"rental_methods":["CREDITCARD","KEY"],"rental_url":"http://app.fordgobike.com/Z6gL/SiFlGfIOTF?station_id=269","short_name":"BK-G9","capacity":19,"external_id":"f1987d85-0da3-4a03-b947-8c6c72947f32","lon":-122.258801,"name":"Telegraph Ave at Carleton St"},{"region_id":"14","lat":37.8534894,"electric_bike_surcharge_waiver":false,"station_id":"270","eightd_has_key_dispenser":false,"has_kiosk":true,"rental_methods":["CREDITCARD","KEY"],"rental_url":"http://app.fordgobike.com/Z6gL/SiFlGfIOTF?station_id=270","short_name":"BK-H3","capacity":15,"external_id":"7cec0a12-76ab-4472-b38c-8e8ad02688a5","lon":-122.2894154,"name":"Ninth St at Heinz Ave"},{"region_id":"14","lat":37.85578332030199,"electric_bike_surcharge_waiver":false,"station_id":"271","eightd_has_key_dispenser":false,"has_kiosk":true,"rental_methods":["CREDITCARD","KEY"],"rental_url":"http://app.fordgobike.com/Z6gL/SiFlGfIOTF?station_id=271","short_name":"BK-G4","capacity":19,"external_id":"4a6b5ab4-b2d8-4657-b93f-a71bc7007283","lon":-122.28312671184538,"name":"San Pablo Park"},{"region_id":"14","lat":37.855573661828785,"electric_bike_surcharge_waiver":false,"station_id":"273","eightd_has_key_dispenser":false,"has_kiosk":true,"rental_methods":["CREDITCARD","KEY"],"rental_url":"http://app.fordgobike.com/Z6gL/SiFlGfIOTF?station_id=273","short_name":"BK-H8","capacity":19,"external_id":"4d1990b2-f487-43be-b436-018ad73ab0dd","lon":-122.26356536149979,"name":"Fulton St at Ashby Ave"},{"region_id":"14","lat":37.8575672,"electric_bike_surcharge_waiver":false,"station_id":"274","eightd_has_key_dispenser":false,"has_kiosk":true,"rental_methods":["CREDITCARD","KEY"],"rental_url":"http://app.fordgobike.com/Z6gL/SiFlGfIOTF?station_id=274","short_name":"BK-G7","capacity":20,"external_id":"ef04d469-63f4-464a-946f-056da6318051","lon":-122.2675583,"name":"Oregon St at Adeline St"},{"region_id":"5","lat":37.3429973,"electric_bike_surcharge_waiver":false,"station_id":"275","eightd_has_key_dispenser":false,"has_kiosk":true,"rental_methods":["CREDITCARD","KEY"],"rental_url":"http://app.fordgobike.com/Z6gL/SiFlGfIOTF?station_id=275","short_name":"SJ-K11","capacity":15,"external_id":"0d48fc9e-6798-46f0-bbb6-67a168800e0b","lon":-121.8888891,"name":"Julian St at 6th St"},{"region_id":"5","lat":37.3322326,"electric_bike_surcharge_waiver":false,"station_id":"276","eightd_has_key_dispenser":false,"has_kiosk":true,"rental_methods":["CREDITCARD","KEY"],"rental_url":"http://app.fordgobike.com/Z6gL/SiFlGfIOTF?station_id=276","short_name":"SJ-K5","capacity":23,"external_id":"2c7560e6-62c6-4403-8b97-8016471948b5","lon":-121.9125165,"name":"Julian St at The Alameda"},{"region_id":"5","lat":37.3336577,"electric_bike_surcharge_waiver":false,"station_id":"277","eightd_has_key_dispenser":false,"has_kiosk":true,"rental_methods":["CREDITCARD","KEY"],"rental_url":"http://app.fordgobike.com/Z6gL/SiFlGfIOTF?station_id=277","short_name":"SJ-K6","capacity":19,"external_id":"27045384-791c-4519-8087-fce2f7c48a69","lon":-121.9085859,"name":"Morrison Ave at Julian St"},{"region_id":"5","lat":37.3319323,"electric_bike_surcharge_waiver":false,"station_id":"278","eightd_has_key_dispenser":false,"has_kiosk":true,"rental_methods":["CREDITCARD","KEY"],"rental_url":"http://app.fordgobike.com/Z6gL/SiFlGfIOTF?station_id=278","short_name":"SJ-L7-2","capacity":23,"external_id":"d28bb0a7-8dc5-49be-86c7-9a3395eed019","lon":-121.9048882,"name":"The Alameda at Bush St"},{"region_id":"5","lat":37.3391456,"electric_bike_surcharge_waiver":false,"station_id":"279","eightd_has_key_dispenser":false,"has_kiosk":true,"rental_methods":["CREDITCARD","KEY"],"rental_url":"http://app.fordgobike.com/Z6gL/SiFlGfIOTF?station_id=279","short_name":"SJ-M11-1","capacity":15,"external_id":"7ae6ad74-9212-4a2b-bb52-aba03cb533e2","lon":-121.8841054,"name":"Santa Clara St at 7th St"},{"region_id":"5","lat":37.3371223728942,"electric_bike_surcharge_waiver":false,"station_id":"280","eightd_has_key_dispenser":false,"has_kiosk":true,"rental_methods":["CREDITCARD","KEY"],"rental_url":"http://app.fordgobike.com/Z6gL/SiFlGfIOTF?station_id=280","short_name":"SJ-M11-2","capacity":23,"external_id":"ed707a89-a68d-4921-a4cb-16c268e45a5b","lon":-121.88321471214294,"name":"San Fernando St at 7th St"},{"region_id":"5","lat":37.3383952,"electric_bike_surcharge_waiver":false,"station_id":"281","eightd_has_key_dispenser":false,"has_kiosk":true,"rental_methods":["CREDITCARD","KEY"],"rental_url":"http://app.fordgobike.com/Z6gL/SiFlGfIOTF?station_id=281","short_name":"SJ-M11-3","capacity":19,"external_id":"7dfd8e07-81a8-4734-bc70-5e47aadbfa5a","lon":-121.8807965,"name":"9th St at San Fernando St"},